STABR,FSCSKEY,FSCS_SEQ,LIBID,LIBNAME,ADDRESS,CITY,ZIP,ZIP4,CNTY,PHONE,C_OUT_TY,C_MSA,SQ_FEET,F_SQ_FT,L_NUM_BM,F_BKMOB,HOURS,F_HOURS,WKS_OPEN,F_WKSOPN,YR_SUB,STATSTRU,STATNAME,STATADDR,LONGITUD,LATITUDE,INCITSST,INCITSCO,GNISPLAC,CNTYPOP,LOCALE,CENTRACT,CENBLOCK,CDCODE,CBSA,MICROF,ADDRTYPE,MSTATUS,SCORE
AK,AK0001,2,AK0001-002,ANCHOR POINT PUBLIC LIBRARY,34020 NORTH FORK ROAD,ANCHOR POINT,99556,,KENAI PENINSULA,9072355692,CE,NO,2880,R_15,0,R_15,1377,R_15,51,R_15,2016,0,0,7,-151.831591,59.779667,2,122,03110,58059,43,8,3009,0200,0,,PointAddress,E,100
AK,AK0002,7,AK0002-007,CHUGIAK-EAGLE RIVER LIBRARY,12001 BUSINESS BOULEVARD #176,EAGLE RIVER,99577,,ANCHORAGE,9073431530,BR,CC,25452,R_15,0,R_15,2028,R_15,52,R_15,2016,0,6,0,-149.571522,61.329532,2,020,03000,298695,31,2.01,2000,0200,11260,0,PointAddress,E,100
AK,AK0002,8,AK0002-008,MULDOON LIBRARY,"1251 MULDOON ROAD, SUITE 158",ANCHORAGE,99504,2070,ANCHORAGE,9073434223,BR,CC,8204,R_15,0,R_15,1768,R_15,52,R_15,2016,0,6,0,-149.733384,61.210659,2,020,03000,298695,11,7.03,5012,0200,11260,0,PointAddress,E,100
AK,AK0002,10,AK0002-010,SCOTT AND WESLEY GERRISH LIBRARY,250 EGLOFF DRIVE,GIRDWOOD,99587,,ANCHORAGE,9073434024,BR,CC,3938,R_15,0,R_15,1716,R_15,52,R_15,2016,0,6,0,-149.134877,60.960253,2,020,03000,298695,42,29,2050,0200,11260,0,PointAddress,E,100
AK,AK0002,11,AK0002-011,Z. J. LOUSSAC LIBRARY,3600 DENALI STREET,ANCHORAGE,99503,6055,ANCHORAGE,9073432892,CE,CC,140000,R_15,0,R_15,3328,R_15,52,R_15,2016,0,0,0,-149.876735,61.187512,2,020,03000,298695,11,19,3002,0200,11260,0,PointAddress,E,100
AK,AK0002,12,AK0002-012,MOUNTAIN VIEW LIBRARY,120 SOUTH BRAGAW STREET,ANCHORAGE,99508,1307,ANCHORAGE,9073432819,BR,CC,10704,R_15,0,R_15,1768,R_15,52,R_15,2016,0,6,0,-149.808605,61.223601,2,020,03000,298695,11,9.01,2000,0200,11260,0,StreetAddress,T,92.421875
AK,AK0003,2,AK0003-002,ANDERSON VILLAGE LIBRARY,101 FIRST STREET,ANDERSON,99744,,DENALI,9075822628,CE,NO,3041,R_15,0,R_15,460,R_15,46,R_15,2016,0,0,0,-149.174471,64.343714,2,068,03220,1919,43,1,1011,0200,0,,StreetAddress,E,92.421875
AK,AK0006,2,AK0006-002,KUSKOKWIM CONSORTIUM LIBRARY,420 CHIEF EDDIE HOFFMAN HIGHWAY,BETHEL,99559,,BETHEL,9075434516,CE,NO,3656,R_15,0,R_15,2880,R_15,52,R_15,2016,0,0,0,-161.771006,60.791148,2,050,06520,17946,33,2,2004,0200,0,,StreetAddress,E,98.640625
AK,AK0007,2,AK0007-002,BIG LAKE PUBLIC LIBRARY,3140 SOUTH BIG LAKE ROAD,BIG LAKE,99652,,MATANUSKA-SUSITNA,9078617635,CE,NO,6940,R_15,0,R_15,2652,R_15,52,R_15,2016,0,0,0,-149.818642,61.547268,2,170,07070,101095,42,5.02,1004,0200,11260,0,StreetAddress,E,92.078125
AK,AK0008,2,AK0008-002,CANTWELL COMMUNITY LIBRARY,1 SCHOOL ROAD,CANTWELL,99729,,DENALI,9047682372,CE,NO,1363,R_15,0,R_15,720,R_15,48,R_15,2016,0,0,0,-148.792318,63.638156,2,068,46560,1919,43,1,2248,0200,0,,Postal,E,100
AK,AK0011,2,AK0011-002,CHINIAK PUBLIC LIBRARY,43318 SPRUCE WAY,CHINIAK,99615,,KODIAK ISLAND,9074863022,CE,NO,850,R_15,0,R_15,195,R_15,39,R_15,2016,0,0,0,-152.234562,57.612147,2,150,13860,13889,43,1,3123,0200,0,,PointAddress,E,97.359375
AK,AK0014,2,AK0014-002,COLD BAY PUBLIC LIBRARY,10 BARANOV ROAD,COLD BAY,99571,,ALEUTIANS EAST,9075322878,CE,NO,1100,R_15,0,R_15,480,R_15,48,R_15,2016,0,0,0,-162.709803,55.207101,2,013,16530,3341,43,1,1236,0200,0,,StreetName,E,100
AK,AK0015,2,AK0015-002,COOPER LANDING COMMUNITY LIBRARY,MILE .8 BEAN CREEK ROAD,COOPER LANDING,99572,,KENAI PENINSULA,9075951241,CE,NO,1320,R_15,0,R_15,1092,R_15,52,R_15,2016,0,0,0,-149.805664,60.494326,2,122,17190,58059,43,3,1187,0200,0,,Postal,E,100
AK,AK0016,2,AK0016-002,CORDOVA PUBLIC LIBRARY,622 FIRST STREET,CORDOVA,99574,,VALDEZ-CORDOVA,9074246667,CE,NO,2800,R_15,0,R_15,2652,R_15,52,R_15,2016,0,0,0,-145.758562,60.544295,2,261,17410,9362,43,2,2036,0200,0,,StreetAddress,E,100
AK,AK0017,3,AK0017-003,CRAIG PUBLIC LIBRARY,504 THIRD STREET,CRAIG,99921,,PR WALES-OUTER KE,9078263281,CE,NO,1800,R_15,0,R_15,2444,R_15,52,R_15,2016,0,0,0,-133.148393,55.474758,2,198,17740,6341,43,2,3028,0200,0,,StreetAddress,E,100
AK,AK0018,2,AK0018-002,IPNATCHIAQ LIBRARY,59 MAIN STREET,DEERING,99736,,NORTHWEST ARCTIC,9073632136,CE,,375,R_15,0,R_15,500,R_15,50,R_15,2016,0,0,0,-163.490055,65.822284,2,188,,7752,43,1,5059,0200,0,,Postal,E,100
AK,AK0019,2,AK0019-002,DELTA COMMUNITY LIBRARY,2291 DEBORAH STREET,DELTA JUNCTION,99737,,SE FAIRBANK,9078954102,CE,NO,5000,R_15,0,R_15,2496,R_15,52,R_15,2016,0,0,0,-145.734637,64.04679,2,240,18620,6839,43,4,2086,0200,0,,StreetAddress,E,100
AK,AK0020,2,AK0020-002,DILLINGHAM PUBLIC LIBRARY,306 D STREET WEST,DILLINGHAM,99576,,DILLINGHAM,9078425610,CE,NO,2430,R_15,0,R_15,2040,R_15,52,R_15,2016,0,0,0,-158.463822,59.040686,2,070,18950,4997,43,2,2003,0200,0,,StreetName,T,90.53125
AK,AK0021,2,AK0021-002,EAGLE PUBLIC LIBRARY,4TH AND AMUNDSEN,EAGLE,99738,,SE FAIRBANK,9075472334,CE,NO,1500,R_15,0,R_15,713,R_15,51,R_15,2016,0,0,15,-141.202641,64.787109,2,240,20380,6839,43,1,1191,0200,0,,Postal,E,100
AK,AK0023,2,AK0023-002,FAIRBANKS NORTH STAR BOROUGH PUBLIC LIBRARIES,1215 COWLES STREET,FAIRBANKS,99701,4313,FAIRBANKS NORTH STAR,9074591031,CE,NO,62100,R_15,0,R_15,1820,R_15,52,R_15,2016,0,0,0,-147.738638,64.838451,2,090,24230,99631,13,1,2027,0200,21820,0,StreetAddress,E,100
AK,AK0023,3,AK0023-003,NORTH POLE BRANCH LIBRARY,656 NORTH POLE HIGH SCHOOL BLVD.,NORTH POLE,99705,,FAIRBANKS NORTH STAR,9074886101,BR,NO,18410,R_15,0,R_15,1840,R_15,46,R_15,2016,0,0,7,-147.355652,64.750582,2,090,55910,99631,23,16,2013,0200,21820,0,Postal,E,100
AK,AK0023,4,AK0023-004,FAIRBANKS NORTH STAR BOROUGH PUBLIC LIBRARIES,1215 COWLES STREET,FAIRBANKS,99701,4313,FAIRBANKS NORTH STAR,9074591022,BS,NO,,R_15,1,R_15,3224,R_15,52,R_15,2016,0,0,0,-147.738638,64.838451,2,090,24230,99631,13,1,2027,0200,21820,0,StreetAddress,E,100
AK,AK0025,2,AK0025-002,CHARLES EVANS COMMUNITY/SCHOOL LIBRARY,299 ANTOSKI ROAD,GALENA,99741,,YUKON-KOYUKUK,9076561205,CE,NO,1500,R_15,0,R_15,750,R_15,50,R_15,2016,0,0,0,-156.88152,64.749499,2,290,27530,5533,43,3,2032,0200,0,,StreetName,E,100
AK,AK0027,2,AK0027-002,COPPER VALLEY COMMUNITY LIBRARY,MILE 186 GLENN HIGHWAY,GLENNALLEN,99588,,VALDEZ-CORDOVA,9078225427,CE,NO,2000,R_15,0,R_15,1508,R_15,52,R_15,2016,0,0,0,-145.561269,62.10946,2,261,28740,9362,43,1,2030,0200,0,,StreetAddress,E,100
AK,AK0028,2,AK0028-002,GUSTAVUS PUBLIC LIBRARY,14 GUSTAVUS MAIN ROAD,GUSTAVUS,99826,,SKAGWAY-ANGOON,9076972350,CE,NO,3052,R_15,0,R_15,1300,R_15,52,R_15,2016,0,0,15,-137.177227,58.736309,2,105,,2133,43,3,1000,0200,0,,Postal,E,100
AK,AK0029,2,AK0029-002,HAINES BOROUGH PUBLIC LIBRARY,111 THIRD AVENUE SOUTH,HAINES,99827,,HAINES,9077662545,CE,NO,8400,R_15,0,R_15,3120,R_15,52,R_15,2016,0,0,0,-135.447976,59.233451,2,100,31050,2534,43,1,3013,0200,0,,StreetAddress,E,100
AK,AK0030,2,AK0030-002,TRI-VALLEY COMMUNITY LIBRARY,400 SUNTRANA STREET,HEALY,99743,,DENALI,9076832507,CE,NO,4560,R_15,0,R_15,1000,R_15,50,R_15,2016,0,0,0,-149.01818,63.873445,2,068,32150,1919,43,1,2506,0200,0,,StreetAddress,E,90.90625
AK,AK0031,2,AK0031-002,HOLLIS PUBLIC LIBRARY,NO. 1 HOLLIS CHILKAT ROAD,HOLLIS,99950,,PR WALES-OUTER KE,9075307112,CE,NO,2300,R_15,0,R_15,960,R_15,48,R_15,2016,0,0,0,-132.951791,55.929205,2,198,,6341,43,1,1151,0200,0,,Postal,E,100
AK,AK0032,2,AK0032-002,HOMER PUBLIC LIBRARY,500 HAZEL AVENUE,HOMER,99603,7849,KENAI PENINSULA,9072353180,CE,NO,17000,R_15,0,R_15,2704,R_15,52,R_15,2016,0,0,0,-151.531835,59.643586,2,122,33140,58059,43,10,1046,0200,0,,PointAddress,E,100
AK,AK0033,2,AK0033-002,HOPE COMMUNITY LIBRARY,18487 A AVENUE,HOPE,99605,,KENAI PENINSULA,9077823121,CE,NO,2304,R_15,0,R_15,1050,R_15,52,R_15,2016,0,0,0,-149.64132,60.918742,2,122,33580,58059,42,3,1398,0200,0,,PointAddress,E,100
AK,AK0035,2,AK0035-002,DOUGLAS PUBLIC LIBRARY,1016 THIRD STREET,DOUGLAS,99824,5416,JUNEAU,9073642378,BR,NO,8000,R_15,0,R_15,1872,R_15,52,R_15,2016,0,0,0,-134.395317,58.276886,2,110,36400,32756,33,6,3017,0200,27940,1,PointAddress,E,100
AK,AK0035,3,AK0035-003,MENDENHALL VALLEY PUBLIC LIBRARY,3025 DIMOND PARK LOOP,JUNEAU,99801,9672,JUNEAU,9077890125,BR,NO,20000,R_15,0,R_15,3224,R_15,52,R_15,2016,0,0,7,-134.573657,58.389717,2,110,36400,32756,33,2,3005,0200,27940,1,Postal,E,100
AK,AK0035,4,AK0035-004,JUNEAU PUBLIC LIBRARIES,292 MARINE WAY,JUNEAU,99801,1361,JUNEAU,9075860443,CE,NO,17000,R_15,0,R_15,2349,R_15,52,R_15,2016,0,0,0,-134.404544,58.298585,2,110,36400,32756,33,5,2013,0200,27940,1,StreetAddress,E,100
AK,AK0037,2,AK0037-002,KASILOF PUBLIC LIBRARY,58231 STERLING HIGHWAY,KASILOF,99610,,KENAI PENINSULA,9072997428,CE,NO,2553,R_15,0,R_15,735,R_15,49,R_15,2016,0,0,0,-151.266222,60.308254,2,122,16420,58059,43,7,6047,0200,0,,PointAddress,E,100
AK,AK0038,2,AK0038-002,KENAI COMMUNITY LIBRARY,163 MAIN STREET LOOP,KENAI,99611,7723,KENAI PENINSULA,9072834378,CE,NO,20000,R_15,0,R_15,3045,R_15,52,R_15,2016,0,0,0,-151.246778,60.559232,2,122,38420,58059,33,6,3040,0200,0,,PointAddress,E,100
AK,AK0039,2,AK0039-002,KETCHIKAN PUBLIC LIBRARY,1110 COPPER RIDGE LANE,KETCHIKAN,99901,6250,KETCHIKAN GATEWAY,9072253331,CE,NO,16726,R_15,0,R_15,2808,R_15,52,R_15,2016,0,0,0,-131.651304,55.349012,2,130,38970,13709,33,3,1000,0200,28540,1,PointAddress,E,100
AK,AK0040,2,AK0040-002,KODIAK PUBLIC LIBRARY,612 EGAN WAY,KODIAK,99615,6487,KODIAK ISLAND,9074868686,CE,,16000,R_15,0,R_15,3432,R_15,52,R_15,2016,0,0,0,-152.397484,57.792622,2,150,40950,13889,33,3,2016,0200,0,,PointAddress,E,100
AK,AK0041,2,AK0041-002,CHUKCHI CONSORTIUM LIBRARY,604 THIRD STREET,KOTZEBUE,99752,,NORTHWEST ARCTIC,9074422410,CE,NO,1700,R_15,0,R_15,2000,R_15,50,R_15,2016,0,0,0,-162.587344,66.899306,2,188,41830,7752,33,2,2007,0200,0,,StreetAddress,E,90.90625
AK,AK0041,3,AK0041-003,SELAWIK DAVIS RAMOTH COMMUNITY LIBRARY,2600 MUSK OX PARKWAY,SELAWIK,99770,,NORTHWEST ARCTIC,9074842142,BR,NO,2000,R_15,0,R_15,300,R_15,30,R_15,2016,0,0,0,-159.414579,66.295539,2,188,,7752,43,1,4054,0200,0,,Postal,E,100
AK,AK0044,2,AK0044-002,MCGRATH COMMUNITY LIBRARY,249 F STREET,MCGRATH,99627,,YUKON-KOYUKUK,9075243843,CE,NO,2536,R_15,0,R_15,1560,R_15,52,R_15,2016,0,0,0,-155.588852,62.949704,2,290,46010,5533,43,4,2204,0200,0,,StreetName,E,100
AK,AK0046,2,AK0046-002,CENTENNIAL LIBRARY,4TH & MILTON STREET,METLAKATLA,99926,,PR WALES-OUTER KE,9078866000,CE,NO,990,R_15,0,R_15,,U_15,,U_15,2016,0,0,0,-131.5752,55.128457,2,198,48870,6341,43,9401,2010,0200,0,,StreetInt,E,95.6875
AK,AK0047,3,AK0047-003,SOUTH NAKNEK PUBLIC LIBRARY,1 SCHOOL ROAD,SOUTH NAKNEK,99670,,BRISTOL BAY,9072466513,BR,NO,840,R_15,0,R_15,1144,R_15,52,R_15,2016,0,0,0,-157.006375,58.73204,2,060,52060,892,43,1,1022,0200,0,,StreetName,E,91.09375
AK,AK0047,4,AK0047-004,MARTIN MONSEN REGIONAL LIBRARY,101 MAIN STREET,NAKNEK,99633,,BRISTOL BAY,9072464465,CE,NO,1456,R_15,0,R_15,2080,R_15,52,R_15,2016,0,0,0,-157.006441,58.734779,2,060,52060,892,43,1,1022,0200,0,,Postal,E,100
AK,AK0048,2,AK0048-002,NENANA PUBLIC LIBRARY,106 EAST SECOND STREET,NENANA,99760,,YUKON-KOYUKUK,9078325812,CE,NO,2421,R_15,0,R_15,1664,R_15,52,R_15,2016,0,0,0,-149.095578,64.562392,2,290,53050,5533,43,2,2282,0200,0,,StreetAddress,E,92.421875
AK,AK0051,2,AK0051-002,NINILCHIK COMMUNITY LIBRARY,15850 STERLING HIGHWAY,NINILCHIK,99639,,KENAI PENINSULA,9075673333,CE,NO,3200,R_15,0,R_15,1456,R_15,52,R_15,2016,0,0,0,-151.674982,60.04179,2,122,54480,58059,43,8,1063,0200,0,,PointAddress,E,100
AK,AK0052,2,AK0052-002,KEGOAYAH KOZGA LIBRARY,223 FRONT STREET,NOME,99762,,NOME,9074436628,CE,NO,1800,R_15,0,R_15,2288,R_15,52,R_15,2016,0,0,0,-165.404168,64.497178,2,180,54920,9846,33,2,3028,0200,0,,StreetAddress,E,100
AK,AK0053,2,AK0053-002,NORTHWAY COMMUNITY/SCHOOL LIBRARY,496 NORTHWAY ROAD,NORTHWAY,99764,,SE FAIRBANK,9077782310,CE,NO,2562,R_15,0,R_15,,U_15,,U_15,2016,0,0,0,-141.884183,62.960966,2,240,56220,6839,43,1,1513,0200,0,,StreetName,E,100
AK,AK0055,2,AK0055-002,PALMER PUBLIC LIBRARY,655 SOUTH VALLEY WAY,PALMER,99645,6667,MATANUSKA-SUSITNA,9077611371,CE,NO,11922,R_15,0,R_15,2288,R_15,52,R_15,2016,0,0,0,-149.113009,61.599781,2,170,58660,101095,32,12.01,2008,0200,11260,0,PointAddress,E,100
AK,AK0056,2,AK0056-002,PELICAN PUBLIC LIBRARY,166 SALMON WAY,PELICAN,99832,,SKAGWAY-ANGOON,9077352500,CE,NO,1200,R_15,0,R_15,832,R_15,52,R_15,2016,0,0,0,-136.227078,57.960305,2,105,59650,2133,43,3,1215,0200,0,,StreetName,E,100
AK,AK0057,2,AK0057-002,PETERSBURG PUBLIC LIBRARY,14 SOUTH SECOND STREET,PETERSBURG,99833,,WRANGELL-PETERSBU,9077723349,CE,,9700,R_15,0,R_15,2912,R_15,52,R_15,2016,0,0,0,-132.95473,56.81128,2,195,60310,3177,43,2,2025,0200,0,,StreetAddress,E,92.421875
AK,AK0058,2,AK0058-002,JESSIE WAKEFIELD MEMORIAL LIBRARY,207 SPRUCE DRIVE,PORT LIONS,99550,,KODIAK ISLAND,9074542332,CE,NO,1360,R_15,0,R_15,780,R_15,52,R_15,2016,0,0,0,-152.883859,57.866332,2,150,63610,13889,43,1,2439,0200,0,,StreetAddress,E,100
AK,AK0061,2,AK0061-002,ST. PAUL ISLAND SCHOOL/COMMUNITY LIBRARY,930 TOLSTOI BOULEVARD,ST. PAUL,99660,,ALEUTIANS WEST,9075463324,CE,NO,1280,R_15,0,R_15,960,R_15,48,R_15,2016,0,0,0,-170.283949,57.12614,2,016,66470,5702,43,1,1457,0200,0,,StreetName,E,100
AK,AK0064,2,AK0064-002,SELDOVIA PUBLIC LIBRARY,260 SELDOVIA STREET,SELDOVIA,99663,,KENAI PENINSULA,9072347662,CE,NO,2791,R_15,0,R_15,1026,R_15,52,R_15,2016,0,0,0,-151.714654,59.438738,2,122,68340,58059,43,12,1314,0200,0,,StreetAddress,E,100
AK,AK0065,2,AK0065-002,SEWARD COMMUNITY LIBRARY AND MUSEUM,239 6TH AVENUE,SEWARD,99664,,KENAI PENINSULA,9072244082,CE,,22542,R_15,0,R_15,2808,R_15,52,R_15,2016,0,6,0,-149.437275,60.102509,2,122,68560,58059,43,13,2083,0200,0,,PointAddress,E,100
AK,AK0067,2,AK0067-002,SITKA PUBLIC LIBRARY,320 HARBOR DRIVE,SITKA,99835,7553,SITKA,9077478708,CE,NO,6200,R_15,0,R_15,3266,R_15,46,R_15,2016,0,6,0,-135.334131,57.049692,2,220,70540,8863,41,2,4027,0200,0,,PointAddress,E,100
AK,AK0068,2,AK0068-002,SKAGWAY PUBLIC LIBRARY,769 STATE STREET,SKAGWAY,99840,,SKAGWAY-ANGOON,9079832665,CE,NO,5014,R_15,0,R_15,2264,R_15,52,R_15,2016,0,0,0,-135.313851,59.457578,2,230,70760,1057,43,1,1143,0200,0,,StreetAddress,E,100
AK,AK0069,2,AK0069-002,JOYCE K. CARVER MEMORIAL SOLDOTNA PUBLIC LIBRARY,235 NORTH BINKLEY ST.,SOLDOTNA,99669,7523,KENAI PENINSULA,9072624227,CE,,21054,R_15,0,R_15,2704,R_15,52,R_15,2016,0,0,0,-151.072406,60.492329,2,122,71640,58059,33,5,3040,0200,0,,PointAddress,E,100
AK,AK0070,2,AK0070-002,SUTTON PUBLIC LIBRARY,11301 NORTH CHICKALOON WAY,SUTTON,99674,,MATANUSKA-SUSITNA,9078617640,CE,NO,6258,R_15,0,R_15,2132,R_15,52,R_15,2016,0,6,0,-148.877393,61.71099,2,170,74525,101095,42,2,1019,0200,11260,0,PointAddress,E,100
AK,AK0072,2,AK0072-002,TALKEETNA PUBLIC LIBRARY,24645 SOUTH TALKEETNA SPUR ROAD,TALKEETNA,99676,,MATANUSKA-SUSITNA,9077332359,CE,NO,2590,R_15,0,R_15,2184,R_15,52,R_15,2016,0,0,7,-150.082461,62.298386,2,170,74830,101095,43,1.02,1041,0200,11260,0,PointAddress,E,100
AK,AK0073,2,AK0073-002,TANANA COMMUNITY/SCHOOL LIBRARY,89 FRONT STREET,TANANA,99777,,YUKON-KOYUKUK,9073667356,CE,NO,848,R_15,0,R_15,510,R_15,51,R_15,2016,0,0,0,-152.080839,65.170496,2,290,75160,5533,43,2,1440,0200,0,,StreetName,E,100
AK,AK0074,2,AK0074-002,DERMOTT O`TOOLE MEMORIAL LIBRARY,707 WEST TENAKEE AVENUE,TENAKEE SPRINGS,99841,,SKAGWAY-ANGOON,9077362248,CE,NO,896,R_15,0,R_15,716,R_15,50,R_15,2016,0,0,0,-135.210892,57.777428,2,105,76260,2133,43,3,3359,0200,0,,StreetAddress,E,92.421875
AK,AK0075,2,AK0075-002,TOK COMMUNITY LIBRARY,MILE 1314 ALASKA HIGHWAY,TOK,99780,,SE FAIRBANK,9078835623,CE,NO,960,R_15,0,R_15,1716,R_15,52,R_15,2016,0,0,0,-142.982127,63.335579,2,240,77800,6839,43,1,2084,0200,0,,StreetAddress,E,100
AK,AK0077,2,AK0077-002,VALDEZ CONSORTIUM LIBRARY,212 FAIRBANKS DRIVE,VALDEZ,99686,,VALDEZ-CORDOVA,9078354632,CE,NO,15000,R_15,0,R_15,2860,R_15,52,R_15,2016,0,0,0,-146.354509,61.129889,2,261,82200,9362,43,3,5017,0200,0,,StreetAddress,E,100
AK,AK0078,2,AK0078-002,WASILLA PUBLIC LIBRARY,391 NORTH MAIN STREET,WASILLA,99654,7021,MATANUSKA-SUSITNA,9073765913,CE,NO,7687,R_15,0,R_15,2080,R_15,52,R_15,2016,0,0,0,-149.441433,61.58298,2,170,83080,101095,32,8,3032,0200,11260,0,PointAddress,E,100
AK,AK0080,2,AK0080-002,WILLOW PUBLIC LIBRARY,23557 WEST WILLOW COMMUNITY CENTER,WILLOW,99688,,MATANUSKA-SUSITNA,9074957323,CE,NO,4111,R_15,0,R_15,2392,R_15,52,R_15,2016,0,0,0,-150.043355,61.738182,2,170,85280,101095,43,4.02,2044,0200,11260,0,Postal,E,100
AK,AK0081,2,AK0081-002,IRENE INGLE PUBLIC LIBRARY,124 SECOND STREET,WRANGELL,99929,,WRANGELL,9078743535,CE,NO,5930,R_15,0,R_15,1976,R_15,52,R_15,2016,0,0,0,-132.386964,56.473191,2,275,86380,2382,43,3,2008,0200,0,,StreetAddress,E,100
AK,AK0082,2,AK0082-002,AKIAK SCHOOL/COMMUNITY LIBRARY,1 KILBUCK ROAD,AKIAK,99552,,BETHEL,9077654631,CE,NO,2500,R_15,0,R_15,,U_15,,U_15,2016,0,0,0,-161.19229,60.885689,2,050,,17946,43,1,3121,0200,0,,Postal,E,100
AK,AK0085,4,AK0085-002,FRANCES KIBBLE KENNY LAKE PUBLIC LIBRARY,MILE 5 EDGERTON HIGHWAY,KENNY LAKE,99573,,VALDEZ-CORDOVA,9078223015,CE,NO,1440,R_15,0,R_15,780,R_15,52,R_15,2016,0,0,0,-144.434771,61.577439,2,261,14110,9362,43,1,4129,0200,0,,StreetAddress,E,95.390625
AK,AK0087,2,AK0087-002,KOYUK PUBLIC LIBRARY,3RD AND BIRCH STREET,KOYUK,99753,,NOME,9079633971,CE,NO,1000,R_15,0,R_15,500,R_15,50,R_15,2016,0,0,0,-161.166658,64.930677,2,180,41940,9846,43,1,3186,0200,0,,StreetInt,E,95.6875
AK,AK0091,2,AK0091-002,TULUKSAK SCHOOL/COMMUNITY LIBRARY,1 PHILLIP STREET,TULUKSAK,99679,,BETHEL,9076955630,CE,NO,1495,R_15,0,R_15,,U_15,,U_15,2016,0,0,0,-160.173565,60.735224,2,050,,17946,43,1,3116,0200,0,,Postal,E,100
AK,AK0094,3,AK0094-003,ALAK COMMUNITY/SCHOOL LIBRARY,567 MAIN STREET,WAINWRIGHT,99782,,NORTH SLOPE,9077632541,BR,NO,2225,R_15,0,R_15,456,R_15,38,R_15,2016,0,0,0,-160.029995,70.638212,2,185,82750,9687,43,2,2248,0200,0,,StreetName,E,100
AK,AK0094,4,AK0094-004,TIKIGAK SCHOOL/COMMUNITY LIBRARY,1837 TIKIGAQ AVENUE,POINT HOPE,99766,,NORTH SLOPE,9073682662,BR,NO,2849,R_15,0,R_15,372,R_15,31,R_15,2016,0,0,0,-166.783258,68.347301,2,185,61630,9687,43,2,1064,0200,0,,StreetName,E,100
AK,AK0094,5,AK0094-005,NUNAMIUT SCHOOL/COMMUNITY LIBRARY,114 ILLINOIS AVENUE,ANAKTUVUK PASS,99721,,NORTH SLOPE,9076613226,BR,NO,1230,R_15,0,R_15,504,R_15,42,R_15,2016,0,0,0,-151.73117,68.146899,2,185,02080,9687,43,2,3224,0200,0,,StreetAddress,E,90.90625
AK,AK0094,6,AK0094-006,MEADE RIVER SCHOOL/COMMUNITY LIBRARY,4001 KIPPI STREET,ATQASUK,99791,,NORTH SLOPE,9076636315,BR,NO,800,R_15,0,R_15,216,R_15,18,R_15,2016,0,0,0,-157.418819,70.48064,2,185,04500,9687,43,2,2221,0200,0,,StreetAddress,E,100
AK,AK0094,7,AK0094-007,HAROLD KAVEOLOOK SCHOOL/COMMUNITY LIBRARY,2001 BARTER AVENUE,KAKTOVIK,99747,,NORTH SLOPE,9076406626,BR,NO,2880,R_15,0,R_15,372,R_15,31,R_15,2016,0,0,0,-143.616861,70.129257,2,185,36990,9687,43,2,3083,0200,0,,StreetName,E,100
AK,AK0094,8,AK0094-008,NUIQSUT TRAPPER SCHOOL/COMMUNITY LIBRARY,3310  3RD AVENUE,NUIQSUT,99789,,NORTH SLOPE,9074806712,BR,NO,1305,R_15,0,R_15,420,R_15,35,R_15,2016,0,6,0,-151.004264,70.221678,2,185,56320,9687,43,2,3464,0200,0,,StreetName,E,88.640625
AK,AK0094,9,AK0094-009,KALI COMMUNITY/SCHOOL LIBRARY,1029 QASIGIALIK STREET,POINT LAY,99759,,NORTH SLOPE,9078332311,BR,NO,888,R_15,0,R_15,480,R_15,48,R_15,2016,0,6,0,-163.018032,69.74659,2,185,61700,9687,43,2,1033,0200,0,,StreetName,E,100
AK,AK0094,10,AK0094-010,TUZZY CONSORTIUM LIBRARY,5421 NORTH STAR STREET,BARROW,99723,,NORTH SLOPE,9078524050,CE,NO,11500,R_15,0,R_15,3120,R_15,52,R_15,2016,0,0,0,-156.745752,71.300053,2,185,05200,9687,33,1,1104,0200,0,,StreetName,E,100
AK,AK0095,2,AK0095-002,AKIACHAK SCHOOL/COMMUNITY LIBRARY,1 MAIN STREET,AKIACHAK,99551,,BETHEL,9078253684,CE,NO,1800,R_15,0,R_15,,U_15,,U_15,2016,0,0,0,-161.420534,60.900132,2,050,00760,17946,43,1,3164,0200,0,,StreetName,E,100
AK,AK0097,2,AK0097-002,ESTHER GREENWALD LIBRARY,366 GARTEENI HIGHWAY,HOONAH,99829,,SKAGWAY-ANGOON,9079453611,CE,NO,4184,R_15,0,R_15,1500,R_15,50,R_15,2016,0,0,0,-135.441601,58.108151,2,105,33360,2133,43,3,2051,0200,0,,StreetAddress,E,100
AK,AK0099,2,AK0099-002,MOOSE PASS PUBLIC LIBRARY,38100 DEPOT ROAD,MOOSE PASS,99631,,KENAI PENINSULA,9072883111,CE,NO,360,R_15,0,R_15,1056,R_15,48,R_15,2016,0,0,0,-149.368807,60.487489,2,122,50190,58059,43,3,1311,0200,0,,StreetName,E,100
AK,AK0100,1,AK0100-002,TOP OF THE KUSKOKWIM COMMUNITY/SCHOOL LIBRARY,9127 MAIN STREET,NIKOLAI,99691,,YUKON-KOYUKUK,9072932427,CE,NO,1640,R_15,0,R_15,,U_15,,U_15,2016,0,0,0,-154.379787,63.01305,2,290,54150,5533,43,4,2170,0200,0,,Postal,E,100
AK,AK0101,2,AK0101-002,SAND POINT COMMUNITY/SCHOOL LIBRARY,123 RED COVE ROAD,SAND POINT,99661,,ALEUTIANS EAST,9073832393,CE,NO,1950,R_15,0,R_15,624,R_15,52,R_15,2016,0,0,0,-160.480725,55.353509,2,013,67020,3341,43,1,3195,0200,0,,StreetName,E,100
AK,AK0102,2,AK0102-002,EGEGIK VILLAGE LIBRARY,289 AIRPORT ROAD,EGEGIK,99579,,LAKE AND PENINSULA,9072332211,CE,NO,1500,R_15,0,R_15,780,R_15,52,R_15,2016,0,0,0,-157.36269,58.202176,2,164,21150,1563,43,1,2103,0200,0,,StreetName,E,100
AK,AK0103,2,AK0103-002,TRAPPER CREEK PUBLIC LIBRARY,8901 EAST DEVONSHIRE DRIVE,TRAPPER CREEK,99683,,MATANUSKA-SUSITNA,9077331546,CE,NO,2762,R_15,0,R_15,1300,R_15,52,R_15,2016,0,0,0,-150.239091,62.307225,2,170,78680,101095,43,1.01,1467,0200,11260,0,StreetAddress,E,100
AK,AK0104,2,AK0104-002,HOLY CROSS COMMUNITY/SCHOOL LIBRARY,210 MAIN STREET,HOLY CROSS,99602,,YUKON-KOYUKUK,9074767131,CE,NO,1450,R_15,0,R_15,,U_15,,U_15,2016,0,0,0,-158.006185,62.453733,2,290,25880,5533,43,4,1061,0200,0,,StreetName,E,100
AK,AK0113,2,AK0113-002,OUZINKIE TRIBAL MEDIA CENTER,216 THIRD STREET,OUZINKIE,99644,,KODIAK ISLAND,9076802323,CE,NO,600,R_15,0,R_15,1760,R_15,52,R_15,2016,0,0,0,-152.498225,57.923854,2,150,58550,13889,42,1,2325,0200,0,,StreetAddress,E,100
AK,AK0114,2,AK0114-002,ST. GEORGE ISLAND SCHOOL/COMMUNITY LIBRARY,NO. 1 ELEMENTARY SCHOOL ROAD,ST. GEORGE,99591,,ALEUTIANS WEST,9075463337,CE,NO,900,R_15,0,R_15,656,R_15,48,R_15,2016,0,0,0,-169.583337,56.573269,2,016,65800,5702,43,1,1645,0200,0,,Postal,E,100
AK,AK0115,2,AK0115-002,UNALASKA PUBLIC LIBRARY,64 ELEANOR DRIVE,UNALASKA,99685,,ALEUTIANS WEST,9075815060,CE,NO,9400,R_15,0,R_15,3484,R_15,52,R_15,2016,0,0,0,-166.529918,53.870448,2,016,80770,5702,43,2,2022,0200,0,,StreetAddress,E,100
AK,AK0116,1,AK0116-002,ANIAK PUBLIC LIBRARY,270 RIVERFRONT DRIVE,ANIAK,99557,,BETHEL,9076754435,CE,NO,400,R_15,0,R_15,900,R_15,50,R_15,2016,0,0,0,-155.110515,61.559455,2,050,,17946,43,3,2009,0200,0,,Postal,E,100
AK,AK0117,1,AK0117-002,HYDER PUBLIC LIBRARY,50 MAIN STREET,HYDER,99923,,PR WALES-OUTER,2506369169,CE,NO,1200,R_15,0,R_15,658,R_15,48,R_15,2016,0,0,0,-130.025846,55.916565,2,198,34570,6341,43,3,1017,0200,0,,StreetName,E,100
AK,AK0120,1,AK0120-002,INNOKO RIVER COMMUNITY/SCHOOL AND TRIBAL LIBRARY,101 PINE STREET,SHAGELUK,99665,,YUKON-KOYUKUK,9074738206,CE,NO,512,R_15,0,R_15,1000,R_15,50,R_15,2016,0,0,0,-159.532798,62.655125,2,290,68670,5533,43,4,1279,0200,0,,Postal,E,100
AK,AK0121,1,AK0121-002,BLACKWELL COMMUNITY/SCHOOL LIBRARY,100 WHITE SPRUCE TRAIL,ANVIK,99558,,YUKON-KOYUKUK,9076636348,CE,NO,560,R_15,0,R_15,,U_15,,U_15,2016,0,0,0,-160.202887,62.654917,2,290,03880,5533,43,4,1203,0200,0,,Postal,E,100
AK,AK0122,1,AK0122-002,DAVID LOUIS COMMUNITY/SCHOOL LIBRARY,DAVID LOUIS SCHOOL BUILDING,GRAYLING,99590,,YUKON-KOYUKUK,9074535135,CE,NO,576,R_15,0,R_15,,U_15,,U_15,2016,0,0,0,-160.066131,62.901283,2,290,30060,5533,43,4,1263,0200,0,,Postal,E,100
AK,AK0123,1,AK0123-001,KLAWOCK PUBLIC LIBRARY,615 NORTH PARK STREET,KLAWOCK,99925,,PR WALES-OUTER,9077552261,CE,,,U_15,0,R_15,1370,R_15,,U_15,2016,8,0,0,-133.098268,55.554462,2,198,40400,6341,43,2,1026,0200,0,,StreetName,E,100
AK,AK0124,1,AK0124-002,LAKE MINCHUMINA COMMUNITY LIBRARY,123 FRONT STREET,LAKE MINCHUMINA,99757,,YUKON-KOYUKUK,9076743211,CE,NO,1100,R_15,0,R_15,1000,R_15,50,R_15,2016,0,0,0,-152.313321,63.882287,2,290,42820,5533,43,4,2018,0200,0,,Postal,E,100
AK,AK0126,1,AK0126-002,IGIUGIG TRIBAL LIBRARY,1 AIRPORT WAY,IGIUGIG,99613,,LAKE AND PENINSULA,9075333211,CE,NO,440,R_15,0,R_15,600,R_15,50,R_15,2016,0,0,0,-156.416252,58.705374,2,060,39630,892,43,1,1109,0200,0,,Postal,E,100
AK,AK0127,1,AK0127-002,COFFMAN COVE COMMUNITY LIBRARY,108 NW DENALI ALLEY,COFFMAN COVE,99918,,PR WALES-OUTER KE,9073292233,CE,NO,2480,R_15,0,R_15,1560,R_15,52,R_15,2016,0,0,0,-132.821075,56.00542,2,198,16360,6341,43,1,1199,0200,0,,Postal,E,100
AK,AK0130,1,AK0130-002,THORNE BAY PUBLIC LIBRARY,120 FREEMAN DRIVE,THORNE BAY,99919,,PR WALES-OUTER KE,9078283303,CE,NO,1120,R_15,0,R_15,1500,R_15,50,R_15,2016,0,0,0,-132.527212,55.68625,2,198,77140,6341,43,1,2021,0200,0,,StreetAddress,E,100
AK,AK0134,1,AK0134-001,WHALE PASS COMMUNITY LIBRARY,BEACH ROAD LOT 3 BLOCK 14,WHALE PASS,99950,,PR WALES-OUTER KE,9078465226,CE,NO,1500,R_15,0,R_15,650,R_15,50,R_15,2016,0,0,0,-132.951791,55.929205,2,198,,6341,43,1,1151,0200,0,,Postal,E,100
AK,AK0135,1,AK0135-001,TOGIAK PUBLIC LIBRARY AND CULTURAL CENTER,2ND AND MAIN STREET,TOGIAK,99678,,DILLINGHAM,9074935566,CE,,1000,R_15,0,R_15,1530,R_15,51,R_15,2016,0,0,15,-160.277271,59.075869,2,070,79780,4997,43,1,3011,0200,0,,Postal,E,100
AK,AK0136,1,AK0136-001,SCAMMON BAY PUBLIC LIBRARY,103 MAIN STREET,SCAMMON BAY,99662,,WADE HAMPTON,9075585400,CE,NO,220,R_15,0,R_15,,U_15,,U_15,2016,0,0,0,-165.583168,61.841926,2,158,67680,8119,43,1,4222,0200,0,,StreetName,E,100
AK,AK0137,1,AK0137-001,KLUKWAN COMMUNITY/SCHOOL LIBRARY,315 MISSION STREET,KLUKWAN,99827,,HAINES,9077675551,CE,NO,1600,R_15,0,R_15,676,R_15,52,R_15,2016,0,0,0,-135.894772,59.399439,2,105,40510,2133,43,2,1004,0200,0,,StreetAddress,E,85.625
AL,AL0001,3,AL0001-003,CARL ELLIOTT REGIONAL LIBRARY SYSTEM,98 18TH STREET EAST,JASPER,35501,5402,WALKER,2052212568,CE,NO,20000,R_15,0,R_15,2340,R_15,52,R_15,2016,0,0,0,-87.274706,33.833476,1,127,38416,65294,32,203,4038,0104,13820,0,StreetAddress,E,100
AL,AL0002,2,100-001,ARLEY PUBLIC LIBRARY,6788 COUNTY ROAD 41,ARLEY,35541,,WINSTON,2053870129,CE,NO,6000,R_15,0,R_15,1820,R_15,52,R_15,2016,0,0,0,-87.212402,34.078477,1,133,02500,23877,43,9655.02,2057,0104,0,,StreetAddress,E,100
AL,AL0005,2,100-002,DOUBLE SPRINGS PUBLIC LIBRARY,637 BLAKE DRIVE,DOUBLE SPRINGS,35553,,WINSTON,2054892412,CE,NO,1500,R_15,0,R_15,2210,R_15,52,R_15,2016,0,0,0,-87.388669,34.148291,1,133,21280,23877,43,9656,5063,0104,0,,StreetAddress,E,100
AL,AL0006,2,100-004,HALEYVILLE PUBLIC LIBRARY,913 20TH STREET,HALEYVILLE,35565,1323,WINSTON,2054867450,CE,NO,3600,R_15,0,R_15,2496,R_15,52,R_15,2016,0,0,0,-87.62361,34.226302,1,133,32704,23877,32,9658,5014,0104,0,,StreetAddress,E,100
AL,AL0007,2,100-005,JASPER PUBLIC LIBRARY,98 EAST 18TH STREET,JASPER,35501,5402,WALKER,2052218512,CE,NC,20000,R_15,0,R_15,2080,R_15,52,R_15,2016,0,0,0,-87.286206,33.832865,1,127,38416,65294,32,201,1083,0104,13820,0,Postal,E,100
AL,AL0009,2,100-006,SUMITON PUBLIC LIBRARY,416 STATE STREET,SUMITON,35148,4124,WALKER,2056487451,CE,NC,2500,R_15,0,R_15,2288,R_15,52,R_15,2016,0,0,0,-87.049495,33.753449,1,127,73848,65294,31,218,2028,0104,13820,0,StreetAddress,E,100
AL,AL0010,2,100-008,CHEAHA REGIONAL LIBRARY,935 COLEMAN STREET,HEFLIN,36264,1359,CLEBURNE,2564637125,CE,NO,2200,R_15,0,R_15,2080,R_15,52,R_15,2016,0,0,0,-85.589062,33.643807,1,029,33976,15018,42,9596,3008,0103,0,,StreetAddress,E,100
AL,AL0010,6,AL0010-006,CHEAHA REGIONAL BOOKMOBILE,935 COLEMAN STREET,HEFLIN,36264,1359,CLEBURNE,2564637125,BS,NO,,R_15,2,R_15,1480,R_15,52,R_15,2016,0,0,0,-85.589062,33.643807,1,029,33976,15018,42,9596,3008,0103,0,,StreetAddress,E,100
AL,AL0011,2,101-000,ROANOKE - ANNIE L. AWBREY PUBLIC LIBRARY,736 COLLEGE STREET,ROANOKE,36274,1617,RANDOLPH,3348632632,CE,NO,9000,R_15,0,R_15,2236,R_15,52,R_15,2016,0,0,0,-85.370499,33.149525,1,111,65040,22696,32,5,4003,0103,0,,StreetAddress,E,100
AL,AL0012,2,101-001,ASHLAND CITY PUBLIC LIBRARY,11 2ND AVENUE NORTH,ASHLAND,36251,,CLAY,2563543427,CE,NO,4000,R_15,0,R_15,2080,R_15,52,R_15,2016,0,0,0,-85.837805,33.274805,1,027,02860,13555,42,9590,2091,0103,0,,StreetAddress,E,100
AL,AL0013,2,101-002,SYLACUGA - B. B. COMER MEMORIAL LIBRARY,314 NORTH BROADWAY AVENUE,SYLACAUGA,35150,2528,TALLADEGA,2562490961,CE,NO,39000,R_15,0,R_15,2600,R_15,52,R_15,2016,0,0,0,-86.250722,33.171817,1,121,74352,80862,32,118,1056,0103,45180,1,StreetAddress,E,100
AL,AL0014,2,999-028,CHEROKEE COUNTY PUBLIC LIBRARY,310 MARY STREET,CENTRE,35960,2026,CHEROKEE,2569275838,CE,NO,10243,R_15,0,R_15,1997,R_15,52,R_15,2016,0,0,0,-85.676378,34.149417,1,019,13648,25859,32,9559,1132,0103,0,,StreetAddress,E,100
AL,AL0015,2,101-004,CHILDERSBURG - EARLE A. RAINWATER MEMORIAL LIBRARY,124 NINTH AVENUE SW,CHILDERSBURG,35044,1642,TALLADEGA,2563787239,CE,NO,9000,R_15,0,R_15,2490,R_15,52,R_15,2016,0,0,0,-86.355697,33.277698,1,121,14464,80862,32,113,4000,0103,45180,1,StreetAddress,E,100
AL,AL0016,2,101-005,LINCOLN PUBLIC LIBRARY,47475 US HWY 78,LINCOLN,35096,6866,TALLADEGA,2057634080,CE,NO,2000,R_15,0,R_15,2150,R_15,52,R_15,2016,0,0,7,-86.123227,33.603831,1,121,43120,80862,42,102.01,1115,0103,45180,1,StreetAddress,E,100
AL,AL0017,2,101-006,LINEVILLE PUBLIC LIBRARY,60119 HIGHWAY 49,LINEVILLE,36266,,CLAY,2563965162,CE,NO,2367,R_15,0,R_15,1857,R_15,52,R_15,2016,0,0,0,-85.754445,33.310882,1,027,43264,13555,42,9589,4032,0103,0,,StreetAddress,E,100
AL,AL0018,2,101-007,HEFLIN - LUCILE MORGAN PUBLIC LIBRARY,541 ROSS STREET,HEFLIN,36264,1339,CLEBURNE,2564632287,CE,NO,2400,R_15,0,R_15,1214,R_15,52,R_15,2016,0,0,0,-85.587851,33.643877,1,029,33976,15018,42,9596,3008,0103,0,,StreetAddress,E,100
AL,AL0019,2,101-008,OXFORD PUBLIC LIBRARY,110 EAST 6TH STREET,OXFORD,36203,1628,CALHOUN,2568311750,CE,NC,25000,R_15,0,R_15,2236,R_15,52,R_15,2016,0,0,0,-85.835449,33.609693,1,015,57576,115620,13,12.01,2072,0103,11500,0,PointAddress,E,100
AL,AL0020,2,101-009,TALLADEGA - ARMSTRONG-OSBORNE PUBLIC LIBRARY,202 SOUTH STREET EAST,TALLADEGA,35160,2471,TALLADEGA,2563624211,CE,NO,24323,R_15,0,R_15,2384,R_15,52,R_15,2016,0,0,0,-86.099548,33.433166,1,121,74592,80862,32,109,2047,0103,45180,1,StreetAddress,E,100
AL,AL0022,2,999-070,ABBEVILLE MEMORIAL LIBRARY,301 KIRKLAND STREET,ABBEVILLE,36310,2418,HENRY,3345852818,CE,NO,4862,R_15,0,R_15,2080,R_15,52,R_15,2016,0,0,0,-85.250422,31.567312,1,067,00124,17221,42,302,3009,0102,20020,0,StreetAddress,E,100
AL,AL0024,2,AL0023-003,HEADLAND - BLANCHE R. SOLOMON MEMORIAL LIBRARY,17 PARK STREET,HEADLAND,36345,1747,HENRY,3346932706,CE,NO,4295,R_15,0,R_15,2184,R_15,52,R_15,2016,0,0,0,-85.341845,31.35241,1,067,33856,17221,31,305,3072,0102,20020,0,StreetAddress,E,100
AL,AL0025,2,999-035,BRUNDIDGE - TUPPER LIGHTFOOT MEMORIAL LIBRARY,164 SOUTH MAIN STREET,BRUNDIDGE,36010,1809,PIKE,3347352145,CE,NO,5926,R_15,0,R_15,2168,R_15,52,R_15,2016,0,0,0,-85.815663,31.718815,1,109,10240,33046,42,1893,3028,0102,45980,1,StreetAddress,E,100
AL,AL0026,2,999-061,OZARK - DALE COUNTY PUBLIC LIBRARY,416 JAMES STREET,OZARK,36360,2082,DALE,3347745480,CE,NC,17604,R_15,0,R_15,2132,R_15,52,R_15,2016,0,0,0,-85.633363,31.452119,1,045,57648,49565,31,205,2023,0102,37120,1,StreetAddress,E,100
AL,AL0029,2,999-079,CLIO - ELTON B. STEPHENS LIBRARY,17 SCHOOL STREET,CLIO,36017,2522,BARBOUR,3347334858,CE,NO,4880,R_15,0,R_15,1040,R_15,52,R_15,2016,0,0,0,-85.469537,31.657268,1,005,,26489,42,9504,1028,0102,0,,StreetAddress,E,100
AL,AL0030,2,517-001,LOUISVILLE PUBLIC LIBRARY,1951 MAIN STREET,LOUISVILLE,36048,,BARBOUR,3342665210,CE,NO,3234,R_15,0,R_15,900,R_15,48,R_15,2016,0,0,0,-85.555253,31.783934,1,005,44344,26489,43,9503,2075,0102,0,,StreetAddress,E,100
AL,AL0031,2,517-003,MIDLAND CITY - MARY BERRY BROWN MEMORIAL LIBRARY,1318 HINTON WATERS AVENUE,MIDLAND CITY,36350,,DALE,3349839999,CE,NC,3176,R_15,0,R_15,2200,R_15,52,R_15,2016,0,0,0,-85.49492,31.317963,1,045,48400,49565,23,214,2053,0102,37120,1,StreetAddress,E,100
AL,AL0032,2,999-077,NEWTON PUBLIC LIBRARY,209 OATES DRIVE,NEWTON,36352,4314,DALE,3342993316,CE,NC,1200,R_15,0,R_15,1580,R_15,51,R_15,2016,0,0,0,-85.596315,31.331384,1,045,54480,49565,41,213,1018,0102,37120,1,StreetAddress,E,100
AL,AL0033,2,999-078,CLAYTON - TOWN AND COUNTY PUBLIC LIBRARY,45 NORTH MIDWAY STREET,CLAYTON,36016,3115,BARBOUR,3347753506,CE,NO,4040,R_15,0,R_15,1250,R_15,52,R_15,2016,0,0,0,-85.449626,31.881386,1,005,15376,26489,43,9502,1041,0102,0,,StreetAddress,E,100
AL,AL0034,2,517-004,TROY PUBLIC LIBRARY,500 EAST WALNUT STREET,TROY,36079,3404,PIKE,3345661314,CE,NO,11418,R_15,0,R_15,2600,R_15,52,R_15,2016,0,0,0,-85.963571,31.808396,1,109,76920,33046,33,1889,3024,0102,45980,1,StreetAddress,E,92.078125
AL,AL0035,2,999-060,UNION SPRINGS PUBLIC LIBRARY,103 NORTH PRAIRIE STREET,UNION SPRINGS,36089,1616,BULLOCK,3347382760,CE,NO,4000,R_15,0,R_15,1560,R_15,52,R_15,2016,0,0,0,-85.716194,32.143452,1,011,77880,10696,32,9522,3081,0102,0,,StreetAddress,E,98.3125
AL,AL0037,2,999-058,ANDALUSIA PUBLIC LIBRARY,212 SOUTH THREE NOTCH STREET,ANDALUSIA,36420,3704,COVINGTON,3342226612,CE,NO,11745,R_15,0,R_15,2499,R_15,52,R_15,2016,0,0,0,-86.482962,31.30678,1,039,01708,37835,33,9621,1040,0102,0,,PointAddress,E,100
AL,AL0038,2,103-001,BRANTLEY PUBLIC LIBRARY,10 MLK DRIVE,BRANTLEY,36009,,CRENSHAW,3345278624,CE,NO,680,R_15,0,R_15,1100,R_15,52,R_15,2016,0,0,0,-86.254862,31.586676,1,041,09016,13963,43,9639,1028,0102,0,,Postal,E,100
AL,AL0039,2,103-002,ELBA PUBLIC LIBRARY,406 SIMMONS STREET,ELBA,36323,1759,COFFEE,3348976921,CE,NO,5000,R_15,0,R_15,2080,R_15,52,R_15,2016,0,0,0,-86.071414,31.414442,1,031,23296,51211,43,105,2041,0102,21460,1,StreetAddress,E,100
AL,AL0040,2,999-034,GENEVA - EMMA KNOX KENAN LIBRARY,312 SOUTH COMMERCE STREET,GENEVA,36340,2409,GENEVA,3346842459,CE,NO,2700,R_15,0,R_15,1820,R_15,52,R_15,2016,0,0,0,-85.865082,31.036391,1,061,29464,26777,32,503,3031,0102,20020,0,StreetAddress,E,100
AL,AL0041,2,103-004,ENTERPRISE PUBLIC LIBRARY,101 EAST GRUBBS STREET,ENTERPRISE,36330,2531,COFFEE,3343472636,CE,NO,12000,R_15,0,R_15,2530,R_15,52,R_15,2016,0,0,0,-85.852727,31.313965,1,031,24184,51211,32,109,1026,0102,21460,1,PointAddress,E,100
AL,AL0042,2,999-041,FLORALA PUBLIC LIBRARY,1214 FOURTH STREET,FLORALA,36442,3810,COVINGTON,3348583525,CE,NO,3200,R_15,0,R_15,1960,R_15,51,R_15,2016,0,0,0,-86.327157,31.005754,1,039,26848,37835,43,9630,4019,0102,0,,PointAddress,E,100
AL,AL0043,2,103-006,HARTFORD - MCGREGOR-MCKINNEY PUBLIC LIBRARY,101 EAST FULTON STREET,HARTFORD,36344,1700,GENEVA,3345882384,CE,NO,2410,R_15,0,R_15,2248,R_15,51,R_15,2016,0,0,0,-85.696672,31.098262,1,061,33424,26777,42,504,5055,0102,20020,0,StreetAddress,E,100
AL,AL0044,2,AL0043-002,LUVERNE PUBLIC LIBRARY,148 EAST THIRD STREET,LUVERNE,36049,1117,CRENSHAW,3343355326,CE,NO,5000,R_15,0,R_15,1780,R_15,52,R_15,2016,0,0,0,-86.261319,31.716301,1,041,44728,13963,43,9637,2035,0102,0,,StreetAddress,E,100
AL,AL0045,2,103-008,OPP PUBLIC LIBRARY,1604 NORTH MAIN STREET,OPP,36467,1424,COVINGTON,3344936423,CE,NO,8725,R_15,0,R_15,2024,R_15,52,R_15,2016,0,0,0,-86.255,31.305442,1,039,57120,37835,41,9624,3020,0102,0,,StreetAddress,E,100
AL,AL0046,2,103-009,SAMSON PUBLIC LIBRARY,200 NORTH JOHNSON STREET,SAMSON,36477,2006,GENEVA,3348987806,CE,NO,900,R_15,0,R_15,1454,R_15,52,R_15,2016,0,0,0,-86.046009,31.116742,1,061,67800,26777,43,501,4035,0102,20020,0,PointAddress,E,100
AL,AL0047,2,103-010,SLOCOMB PUBLIC LIBRARY,134 SOUTH DALTON AVENUE,SLOCOMB,36375,,GENEVA,3348869009,CE,NO,3528,R_15,0,R_15,1020,R_15,52,R_15,2016,0,0,0,-85.593662,31.107201,1,061,71040,26777,42,505,3009,0102,20020,0,StreetAddress,E,90.90625
AL,AL0048,2,103-011,HORSESHOE BEND REGIONAL LIBRARY,207 NORTH WEST STREET,DADEVILLE,36853,1355,TALLAPOOSA,2568259232,CE,NO,8300,R_15,0,R_15,1791,R_15,52,R_15,2016,0,0,0,-85.765419,32.831585,1,123,19336,40844,42,9624,3005,0103,0,,StreetAddress,E,100
AL,AL0048,8,AL0048-008,HORSESHOE BEND REGIONAL BOOKMOBILE,207 NORTH WEST STREET,DADEVILLE,36853,1355,TALLAPOOSA,2568259232,BS,CC,,R_15,1,R_15,737,R_15,52,R_15,2016,0,0,0,-85.765419,32.831585,1,123,19336,40844,42,9624,3005,0103,0,,StreetAddress,E,100
AL,AL0049,2,104-001,ALEXANDER CITY - ADELIA MCCONNELL RUSSELL LIBRARY,318 CHURCH STREET,ALEXANDER CITY,35010,2573,TALLAPOOSA,2563296796,CE,NO,10950,R_15,0,R_15,2496,R_15,52,R_15,2016,0,0,0,-85.953879,32.941382,1,123,01132,40844,32,9623,1062,0103,0,,StreetAddress,E,100
AL,AL0049,3,104-000,MAMIE`S PLACE,284 CHURCH STREET,ALEXANDER CITY,35010,2516,TALLAPOOSA,2562344644,BR,CC,3250,R_15,0,R_15,2496,R_15,52,R_15,2016,0,0,0,-85.953879,32.941822,1,123,01132,40844,32,9623,1062,0103,0,,StreetAddress,E,100
AL,AL0050,2,AL0049-003,DADEVILLE PUBLIC LIBRARY,205 NORTH WEST STREET,DADEVILLE,36853,1355,TALLAPOOSA,2568257820,CE,NO,1864,R_15,0,R_15,1914,R_15,52,R_15,2016,0,0,0,-85.76542,32.831564,1,123,19336,40844,42,9624,3005,0103,0,,StreetAddress,E,100
AL,AL0051,2,104-002,GOODWATER PUBLIC LIBRARY,36 WEOGUFKA STREET,GOODWATER,35072,,COOSA,2568395741,CE,NO,4600,R_15,0,R_15,2100,R_15,52,R_15,2016,0,0,0,-86.054171,33.063714,1,037,30640,10724,42,9610,3002,0106,45180,1,StreetAddress,E,100
AL,AL0052,2,104-003,AUBURN PUBLIC LIBRARY,749 EAST THACH AVENUE,AUBURN,36830,5545,LEE,3345013190,CE,NO,34065,R_15,0,R_15,3444,R_15,52,R_15,2016,0,0,0,-85.465966,32.604455,1,081,03076,156993,13,403,2000,0103,12220,0,StreetAddress,E,100
AL,AL0053,2,104-004,OPELIKA - LEWIS COOPER JR. MEMORIAL LIBRARY,200 SOUTH 6TH STREET,OPELIKA,36801,5030,LEE,3347055380,CE,NO,10000,R_15,0,R_15,3500,R_15,52,R_15,2016,0,0,0,-85.375884,32.649131,1,081,57048,156993,13,416,2021,0103,12220,0,StreetAddress,E,100
AL,AL0054,2,104-005,MILLBROOK PUBLIC LIBRARY,3650 GRANDVIEW ROAD,MILLBROOK,36054,3262,ELMORE,3342856688,CE,NC,6000,R_15,0,R_15,2801,R_15,52,R_15,2016,0,0,0,-86.362231,32.476804,1,051,48712,81468,21,313,2002,0102,33860,0,StreetAddress,E,100
AL,AL0055,2,104-006,ROCKFORD PUBLIC LIBRARY,9688 US HWY 231,ROCKFORD,35136,,COOSA,2563774911,CE,NO,820,R_15,0,R_15,2550,R_15,52,R_15,2016,0,0,0,-86.21985,32.888552,1,037,65472,10724,42,9612,1090,0106,45180,1,StreetAddress,E,100
AL,AL0056,2,104-007,TALLASSEE COMMUNITY PUBLIC LIBRARY,99 FREEMAN AVENUE,TALLASSEE,36078,2035,TALLAPOOSA,3342832732,CE,NO,5619,R_15,0,R_15,2350,R_15,52,R_15,2016,0,0,0,-85.883518,32.535026,1,123,74688,40844,41,9627,3011,0103,0,,StreetAddress,E,100
AL,AL0057,2,104-008,WETUMPKA PUBLIC LIBRARY,212 SOUTH MAIN STREET,WETUMPKA,36092,2748,ELMORE,3345671308,CE,NO,7000,R_15,0,R_15,2782,R_15,52,R_15,2016,0,0,0,-86.205728,32.536194,1,051,81720,81468,31,308,1023,0102,33860,0,StreetAddress,E,100
AL,AL0059,2,104-009,FLORENCE - LAUDERDALE PUBLIC LIBRARY,350 NORTH WOOD AVENUE,FLORENCE,35630,4709,LAUDERDALE,2567646564,CE,CC,42798,R_15,0,R_15,2754,R_15,52,R_15,2016,0,0,0,-87.674756,34.803718,1,077,26896,92596,13,106,4013,0105,22520,0,StreetAddress,E,100
AL,AL0060,2,516-001,TUSCUMBIA - HELEN KELLER PUBLIC LIBRARY,511 NORTH MAIN STREET,TUSCUMBIA,35674,2059,COLBERT,2563837065,CE,NC,10350,R_15,0,R_15,1924,R_15,52,R_15,2016,0,0,0,-87.703521,34.736611,1,033,77280,54354,23,205,3003,0104,22520,0,StreetAddress,E,100
AL,AL0061,2,999-039,LEIGHTON PUBLIC LIBRARY,8740 MAIN STREET,LEIGHTON,35646,3701,COLBERT,2564465380,CE,NO,1900,R_15,0,R_15,823,R_15,52,R_15,2016,0,0,0,-87.529018,34.700781,1,033,42160,54354,41,208.02,3048,0104,22520,0,PointAddress,E,100
AL,AL0062,2,999-042,MUSCLE SHOALS PUBLIC LIBRARY,1918 EAST AVALON AVENUE,MUSCLE SHOALS,35661,3120,COLBERT,2563869212,CE,NC,15800,R_15,0,R_15,2193,R_15,51,R_15,2016,0,0,0,-87.647022,34.744439,1,033,53016,54354,13,207.03,1006,0104,22520,0,StreetAddress,E,92.421875
AL,AL0063,2,999-050,ROGERSVILLE PUBLIC LIBRARY,74 BANK STREET,ROGERSVILLE,35652,7609,LAUDERDALE,2562470151,CE,NC,6800,R_15,0,R_15,2080,R_15,52,R_15,2016,0,0,0,-87.291968,34.824767,1,077,66216,92596,42,118.02,2028,0105,22520,0,PointAddress,E,100
AL,AL0064,2,516-004,SHEFFIELD PUBLIC LIBRARY,316 NORTH MONTGOMERY AVENUE,SHEFFIELD,35660,2709,COLBERT,2563065633,CE,NC,13000,R_15,0,R_15,2000,R_15,52,R_15,2016,0,0,0,-87.698601,34.76108,1,033,69648,54354,23,202,1107,0104,22520,0,StreetAddress,E,100
AL,AL0065,2,999-066,NORTHWEST REGIONAL LIBRARY,185 ASHWOOD DRIVE,WINFIELD,35594,5436,MARION,2054872330,CE,NO,8346,R_15,0,R_15,1536,R_15,48,R_15,2016,0,0,0,-87.814982,33.930851,1,093,82992,30168,43,9647,2120,0104,0,,StreetAddress,E,100
AL,AL0066,2,106-000,HAMILTON - CLYDE NIX PUBLIC LIBRARY,350 BEXAR AVENUE WEST,HAMILTON,35570,5521,MARION,2059214290,CE,NO,3650,R_15,0,R_15,1927,R_15,52,R_15,2016,0,0,0,-87.992912,34.143417,1,093,32848,30168,33,9643,3064,0104,0,,PointAddress,E,100
AL,AL0067,2,106-001,KENNEDY PUBLIC LIBRARY,17885 HIGHWAY 96,KENNEDY,35574,,LAMAR,2055963670,CE,NO,864,R_15,0,R_15,1920,R_15,52,R_15,2016,0,0,0,-87.949839,33.62142,1,075,,13886,42,302,2007,0104,0,,StreetAddress,E,100
AL,AL0068,2,106-002,GUIN - MCHS COMMUNITY LIBRARY,8115 U.S. HIGHWAY 43,GUIN,35563,2265,MARION,2054682544,CE,NO,4000,R_15,0,R_15,2200,R_15,52,R_15,2016,0,0,0,-87.915073,33.973692,1,093,32224,30168,43,9646,2044,0104,0,,StreetAddress,E,96.65625
AL,AL0069,2,106-003,MILLPORT PUBLIC LIBRARY,920 BLACK STREET,MILLPORT,35576,,LAMAR,2056624286,CE,NO,3000,R_15,0,R_15,1805,R_15,52,R_15,2016,0,0,0,-88.087372,33.561504,1,075,48808,13886,43,302,3023,0104,0,,StreetAddress,E,100
AL,AL0070,2,106-004,RUSSELLVILLE PUBLIC LIBRARY,110 EAST LAWRENCE STREET,RUSSELLVILLE,35653,2349,FRANKLIN,2563321535,CE,NO,4000,R_15,0,R_15,1664,R_15,52,R_15,2016,0,0,0,-87.730568,34.504874,1,059,67056,31696,32,9730,3041,0104,0,,StreetAddress,E,92.421875
AL,AL0071,2,106-005,SULLIGENT PUBLIC LIBRARY,514 ELM STREET,SULLIGENT,35586,,LAMAR,2056988631,CE,NO,2778,R_15,0,R_15,1976,R_15,52,R_15,2016,0,0,0,-88.134976,33.903872,1,075,73728,13886,43,300,3057,0104,0,,StreetAddress,E,100
AL,AL0072,2,106-006,VERNON - MARY WALLACE COBB MEMORIAL LIBRARY,110 FIRST AVENUE WEST,VERNON,35592,5634,LAMAR,2056956123,CE,NO,1870,R_15,0,R_15,2108,R_15,52,R_15,2016,0,0,0,-88.11074,33.75793,1,075,78480,13886,43,301,7101,0104,0,,StreetAddress,T,92.421875
AL,AL0073,2,106-007,RED BAY - WEATHERFORD PUBLIC LIBRARY,307 4TH AVENUE SOUTH,RED BAY,35582,,FRANKLIN,2563569255,CE,NO,5000,R_15,0,R_15,1200,R_15,52,R_15,2016,0,0,0,-88.146424,34.442276,1,059,63576,31696,43,9734,3051,0104,0,,StreetAddress,T,92.421875
AL,AL0074,2,106-008,WINFIELD PUBLIC LIBRARY,185 ASHWOOD DRIVE,WINFIELD,35594,5436,MARION,2054872484,CE,NO,3384,R_15,0,R_15,1996,R_15,52,R_15,2016,0,0,0,-87.814982,33.930851,1,093,82992,30168,43,9647,2120,0104,0,,StreetAddress,E,100
AL,AL0076,2,106-009,ATHENS - LIMESTONE PUBLIC LIBRARY,603 JEFFERSON STREET,ATHENS,35611,3543,LIMESTONE,2562321233,CE,NO,36000,R_15,0,R_15,1870,R_15,52,R_15,2016,0,0,7,-86.972474,34.797124,1,083,02956,91663,31,210,2023,0105,26620,0,StreetAddress,T,92.421875
AL,AL0077,2,107-001,DECATUR PUBLIC LIBRARY,504 CHERRY STREET NE,DECATUR,35602,1970,MORGAN,2563532993,CE,CC,26000,R_15,0,R_15,3172,R_15,52,R_15,2016,0,0,0,-86.981365,34.605661,1,103,20104,119565,13,4,4062,0105,19460,0,StreetAddress,E,92.078125
AL,AL0078,2,107-002,HARTSELLE - WILLIAM BRADFORD HUIE LIBRARY OF HARTSELLE,152 SPARKMAN STREET NW,HARTSELLE,35640,2424,MORGAN,2567739880,CE,NO,5500,R_15,0,R_15,2080,R_15,52,R_15,2016,0,0,0,-86.934972,34.444163,1,103,33448,119565,23,53.03,1027,0105,19460,0,PointAddress,E,100
AL,AL0079,2,107-003,LAWRENCE COUNTY PUBLIC LIBRARY,401 COLLEGE STREET,LAWRENCE,35650,1483,MOULTON,2569740883,CE,NC,5000,R_15,0,R_15,1909,R_15,46,R_15,2016,0,0,0,-87.294765,34.476036,1,079,51600,33115,41,9798,1006,0104,19460,0,StreetAddress,E,95.28125
AL,AL0080,2,AL0079-003,BALDWIN COUNTY LIBRARY COOPERATIVE,22251 PALMER STREET,ROBERTSDALE,36567,3067,BALDWIN,2519704010,CE,NC,7600,R_15,0,R_15,2210,R_15,52,R_15,2016,0,0,0,-87.716873,30.550331,1,003,65208,203709,31,109.05,2021,0101,19300,0,PointAddress,E,100
AL,AL0080,4,107-004,BALDWIN COUNTY LIBRARY COOPERATIVE - BOOKMOBILE,22251 PALMER STREET,ROBERTSDALE,36567,3067,BALDWIN,2519704010,BS,NC,,R_15,1,R_15,960,R_15,50,R_15,2016,0,0,0,-87.716873,30.550331,1,003,65208,203709,31,109.05,2021,0101,19300,0,PointAddress,E,100
AL,AL0081,2,AL0080-004,DAPHNE PUBLIC LIBRARY,2607 U.S. HIGHWAY 98,DAPHNE,36526,7252,BALDWIN,2516212818,CE,NC,20988,R_15,0,R_15,2825,R_15,52,R_15,2016,0,0,0,-87.904874,30.617327,1,003,19648,203709,13,108,2020,0101,19300,0,StreetAddress,E,96.65625
AL,AL0082,2,500-000,FAIRHOPE PUBLIC LIBRARY,501 FAIRHOPE AVENUE,FAIRHOPE,36532,2111,BALDWIN,2519288473,CE,NC,39600,R_15,0,R_15,2704,R_15,52,R_15,2016,0,0,0,-87.901025,30.523067,1,003,25240,203709,13,112.01,2052,0101,19300,0,StreetAddress,E,100
AL,AL0083,2,500-001,FOLEY PUBLIC LIBRARY,319 EAST LAUREL AVENUE,FOLEY,36535,2680,BALDWIN,2519437665,CE,NC,21000,R_15,0,R_15,2912,R_15,52,R_15,2016,0,0,0,-87.679358,30.406408,1,003,26992,203709,31,115.01,1126,0101,19300,0,StreetAddress,E,100
AL,AL0084,2,500-002,BAY MINETTE PUBLIC LIBRARY,205 WEST SECOND STREET,BAY MINETTE,36507,3214,BALDWIN,2515801648,CE,NC,12200,R_15,0,R_15,2600,R_15,52,R_15,2016,0,0,0,-87.776132,30.882567,1,003,04660,203709,32,105,1059,0101,19300,0,StreetAddress,E,100
AL,AL0085,2,999-072,LOXLEY PUBLIC LIBRARY,1001 EAST LOXLEY AVENUE,LOXLEY,36551,,BALDWIN,2519645695,CE,NC,1678,R_15,0,R_15,1350,R_15,52,R_15,2016,0,0,0,-87.752894,30.619922,1,003,44608,203709,23,109.03,1055,0101,19300,0,StreetAddress,E,100
AL,AL0086,2,500-004,OSCAR JOHNSON MEMORIAL LIBRARY,21967  SIXTH  STREET,SILVERHILL,36576,,BALDWIN,2519455201,CE,NC,1000,R_15,0,R_15,780,R_15,52,R_15,2016,0,0,0,-87.751896,30.545199,1,003,70536,203709,31,109.05,1055,0101,19300,0,StreetAddress,E,100
AL,AL0087,2,500-005,ROBERTSDALE PUBLIC LIBRARY,18301 PENNSYLVANIA STREET,ROBERTSDALE,36567,3072,BALDWIN,2519478960,CE,NC,2000,R_15,0,R_15,2624,R_15,52,R_15,2016,0,0,0,-87.711888,30.553667,1,003,65208,203709,31,109.05,2004,0101,19300,0,StreetAddress,E,100
AL,AL0088,2,500-006,GULF SHORES - THOMAS B. NORTON PUBLIC LIBRARY,221 WEST 19TH AVENUE,GULF SHORES,36542,3055,BALDWIN,2519681176,CE,NC,9000,R_15,0,R_15,2548,R_15,52,R_15,2016,0,0,0,-87.690215,30.272466,1,003,32272,203709,31,114.07,3034,0101,19300,0,StreetAddress,E,100
AL,AL0090,2,500-008,ADAMSVILLE PUBLIC LIBRARY,4825 MAIN STREET,ADAMSVILLE,35005,,JEFFERSON,2056743399,CE,NC,4759,R_15,0,R_15,2340,R_15,52,R_15,2016,0,0,0,-86.953631,33.600449,1,073,00460,660367,21,121.04,3022,0106,13820,0,StreetAddress,E,100
AL,AL0091,2,501-001,BESSEMER PUBLIC LIBRARY,400 19TH STREET N,BESSEMER,35020,4819,JEFFERSON,2054287882,CE,CC,28657,R_15,0,R_15,2860,R_15,52,R_15,2016,0,0,0,-86.954946,33.403346,1,073,05980,660367,21,102,2039,0107,13820,0,PointAddress,E,100
AL,AL0092,2,501-002,MOUNTAIN BROOK - EMMET O`NEAL LIBRARY,50 OAK STREET,MOUNTAIN BROOK,35213,4219,JEFFERSON,2058790459,CE,NC,40500,R_15,0,R_15,3432,R_15,52,R_15,2016,0,0,0,-86.75615,33.501208,1,073,51696,660367,21,108.01,2043,0106,13820,0,PointAddress,E,100
AL,AL0093,2,501-003,FAIRFIELD - WALTER J. HANNA MEMORIAL LIBRARY,4615 GARY AVENUE,FAIRFIELD,35064,1341,JEFFERSON,2057836007,CE,NO,11410,R_15,0,R_15,2496,R_15,52,R_15,2016,0,0,0,-86.915367,33.491112,1,073,25120,660367,21,106.02,1079,0107,13820,0,PointAddress,E,100
AL,AL0094,2,501-004,FULTONDALE PUBLIC LIBRARY,500 BYRD LANE,FULTONDALE,35068,4036,JEFFERSON,2058496335,CE,,6595,R_15,0,R_15,2950,R_15,50,R_15,2016,0,0,0,-86.804106,33.606136,1,073,28552,660367,21,120.02,2048,0106,13820,0,Postal,E,100
AL,AL0095,2,501-005,GARDENDALE - MARTHA MOORE PUBLIC LIBRARY,995 MT. OLIVE ROAD,GARDENDALE,35071,4654,JEFFERSON,2056316639,CE,NC,7730,R_15,0,R_15,2647,R_15,52,R_15,2016,0,0,0,-86.818548,33.650464,1,073,29056,660367,21,117.03,2051,0106,13820,0,PointAddress,E,100
AL,AL0096,2,501-006,GRAYSVILLE PUBLIC LIBRARY,315 SOUTH MAIN STREET,GRAYSVILLE,35073,1404,JEFFERSON,2056743040,CE,NC,4800,R_15,0,R_15,2184,R_15,52,R_15,2016,0,0,0,-86.973359,33.626555,1,073,31384,660367,21,121.03,4002,0106,13820,0,PointAddress,E,100
AL,AL0097,2,501-007,HOMEWOOD PUBLIC LIBRARY,1721 OXMOOR ROAD,HOMEWOOD,35209,4036,JEFFERSON,2053326600,CE,NC,49627,R_15,0,R_15,3250,R_15,52,R_15,2016,0,0,0,-86.795474,33.475454,1,073,35800,660367,21,107.02,1092,0106,13820,0,PointAddress,E,100
AL,AL0098,2,501-008,HOOVER PUBLIC LIBRARY,200 MUNICIPAL DRIVE,HOOVER,35216,5510,JEFFERSON,2054447800,CE,NC,85000,R_15,0,R_15,3336,R_15,52,R_15,2016,0,0,0,-86.80512,33.388846,1,073,35896,660367,13,129.08,1009,0106,13820,0,StreetAddress,E,100
AL,AL0099,2,501-009,HUEYTOWN PUBLIC LIBRARY,1372 HUEYTOWN ROAD,HUEYTOWN,35023,2443,JEFFERSON,2054911443,CE,NC,10000,R_15,0,R_15,2288,R_15,52,R_15,2016,0,0,0,-86.996965,33.448037,1,073,36448,660367,21,100.01,2022,0106,13820,0,PointAddress,E,100
AL,AL0100,2,501-010,IRONDALE PUBLIC LIBRARY,105 SOUTH 20TH STREET,IRONDALE,35210,1528,JEFFERSON,2059511415,CE,NC,8000,R_15,0,R_15,2382,R_15,52,R_15,2016,0,0,0,-86.721446,33.524985,1,073,07000,660367,12,56,2012,0106,13820,0,Postal,E,100
AL,AL0101,2,501-011,LEEDS - JANE CULBRETH LIBRARY,8104 PARKWAY DRIVE,LEEDS,35094,2225,JEFFERSON,2056995962,CE,NC,5000,R_15,0,R_15,2304,R_15,52,R_15,2016,0,0,0,-86.54166,33.543487,1,073,41968,660367,21,110.01,2082,0106,13820,0,PointAddress,E,100
AL,AL0102,2,501-012,MIDFIELD PUBLIC LIBRARY,400 BRELAND DRIVE,MIDFIELD,35228,2732,JEFFERSON,2059231027,CE,NC,2800,R_15,0,R_15,2192,R_15,44,R_15,2016,0,0,0,-86.916261,33.45734,1,073,48376,660367,21,132,3024,0107,13820,0,StreetAddress,E,100
AL,AL0103,2,501-013,PLEASANT GROVE PUBLIC LIBRARY,501 PARK ROAD,PLEASANT GROVE,35127,1625,JEFFERSON,2057441742,CE,CC,4056,R_15,0,R_15,2355,R_15,52,R_15,2016,0,0,0,-86.970719,33.490858,1,073,61008,660367,21,123.05,3017,0106,13820,0,PointAddress,E,100
AL,AL0104,2,501-014,TARRANT PUBLIC LIBRARY,1143 FORD AVENUE,TARRANT,35217,2437,JEFFERSON,2058410575,CE,NC,4500,R_15,0,R_15,2226,R_15,52,R_15,2016,0,0,0,-86.769878,33.583067,1,073,74976,660367,21,109,5005,0107,13820,0,PointAddress,E,100
AL,AL0105,2,501-015,TRUSSVILLE PUBLIC LIBRARY,201 PARKWAY DRIVE,TRUSSVILLE,35173,1125,JEFFERSON,2056552022,CE,NC,12200,R_15,0,R_15,2935,R_15,52,R_15,2016,0,0,0,-86.604718,33.62663,1,073,76944,660367,21,111.09,3067,0106,13820,0,PointAddress,E,100
AL,AL0106,2,501-016,VESTAVIA HILLS LIBRARY IN THE FOREST,1221 MONTGOMERY HIGHWAY,VESTAVIA HILLS,35216,2809,JEFFERSON,2059780155,CE,NC,16500,R_15,0,R_15,3302,R_15,52,R_15,2016,0,0,0,-86.78846,33.431477,1,073,78552,660367,21,129.06,2027,0106,13820,0,StreetAddress,E,100
AL,AL0107,2,501-017,WARRIOR PUBLIC LIBRARY,101 FIRST STREET,WARRIOR,35180,1500,JEFFERSON,2056473006,CE,NC,1800,R_15,0,R_15,2450,R_15,52,R_15,2016,0,0,0,-86.807083,33.813359,1,073,79944,660367,41,114,2017,0106,13820,0,StreetAddress,E,100
AL,AL0108,3,501-018,BIRMINGHAM PUBLIC - AVONDALE REGIONAL LIBRARY,509 40TH STREET SOUTH,BIRMINGHAM,35222,3309,JEFFERSON,2052264000,BR,CC,13000,R_15,0,R_15,3224,R_15,52,R_15,2016,0,0,0,-86.774288,33.520934,1,073,07000,660367,12,24,4025,0106,13820,0,StreetAddress,E,100
AL,AL0108,4,AL0108-007,BIRMINGHAM PUBLIC - CENTRAL BRANCH,2100 PARK PLACE,BIRMINGHAM,35203,2744,JEFFERSON,2052263600,CE,CC,229800,R_15,0,R_15,3224,R_15,52,R_15,2016,0,0,0,-86.807273,33.520886,1,073,07000,660367,12,27,1074,0107,13820,0,PointAddress,E,100
AL,AL0108,5,AL0108-003,BIRMINGHAM PUBLIC - EAST ENSLEY BRANCH,900 14TH STREET - ENSLEY,BIRMINGHAM,35218,1206,JEFFERSON,2057871928,BR,CC,4500,R_15,0,R_15,1872,R_15,52,R_15,2016,0,0,0,-86.889251,33.515115,1,073,07000,660367,12,33,1035,0107,13820,0,StreetAddress,E,100
AL,AL0108,6,AL0108-006,BIRMINGHAM PUBLIC - EAST LAKE BRANCH,5 OPORTO-MADRID BLVD. SOUTH,BIRMINGHAM,35206,4847,JEFFERSON,2058363341,BR,CC,6000,R_15,0,R_15,2964,R_15,52,R_15,2016,0,0,0,-86.727806,33.560714,1,073,07000,660367,12,20,2024,0107,13820,0,PointAddress,E,100
AL,AL0108,7,AL0108-008,BIRMINGHAM PUBLIC - EASTWOOD BRANCH,4500 MONTEVALLO ROAD,BIRMINGHAM,35210,3129,JEFFERSON,2055914944,BR,CC,2400,R_15,0,R_15,2964,R_15,52,R_15,2016,0,0,0,-86.726423,33.521086,1,073,07000,660367,12,56,4005,0106,13820,0,StreetAddress,E,92.078125
AL,AL0108,8,AL0108-004,BIRMINGHAM PUBLIC - ENSLEY BRANCH,"1201 25TH STREET, ENSLEY",BIRMINGHAM,35218,1944,JEFFERSON,2057852625,BR,CC,6000,R_15,0,R_15,1872,R_15,52,R_15,2016,0,0,0,-86.893634,33.504101,1,073,07000,660367,12,34,2094,0107,13820,0,StreetAddress,E,100
AL,AL0108,9,AL0108-009,BIRMINGHAM PUBLIC - FIVE POINTS WEST BRANCH,4812 AVENUE W,BIRMINGHAM,35208,4726,JEFFERSON,2052264013,BR,CC,30000,R_15,0,R_15,3224,R_15,52,R_15,2016,0,0,0,-86.87435,33.493837,1,073,07000,660367,12,39,1063,0107,13820,0,PointAddress,E,100
AL,AL0108,10,AL0108-010,BIRMINGHAM PUBLIC - INGLENOOK BRANCH,4100 40TH TERRACE NORTH,BIRMINGHAM,35217,4162,JEFFERSON,2058498739,BR,CC,2082,R_15,0,R_15,1872,R_15,52,R_15,2016,0,0,0,-86.776648,33.562083,1,073,07000,660367,12,4,2002,0107,13820,0,StreetAddress,E,100
AL,AL0108,11,AL0108-011,BIRMINGHAM PUBLIC - NORTH AVONDALE BRANCH,501 43RD STREET NORTH,BIRMINGHAM,35222,1417,JEFFERSON,2055922082,BR,CC,4250,R_15,0,R_15,1872,R_15,52,R_15,2016,0,0,0,-86.772546,33.531218,1,073,07000,660367,12,24,1004,0107,13820,0,PointAddress,E,100
AL,AL0108,12,AL0108-012,BIRMINGHAM PUBLIC - NORTH BIRMINGHAM REGIONAL BRANCH,2501 31ST AVENUE NORTH,BIRMINGHAM,35207,4423,JEFFERSON,2052264025,BR,CC,14000,R_15,0,R_15,3224,R_15,52,R_15,2016,0,0,0,-86.819738,33.552334,1,073,07000,660367,12,8,1071,0107,13820,0,StreetAddress,E,100
AL,AL0108,13,AL0108-013,BIRMINGHAM PUBLIC - POWDERLY BRANCH,3301 JEFFERSON AVENUE SW,BIRMINGHAM,35221,1241,JEFFERSON,2059256178,BR,CC,5082,R_15,0,R_15,1872,R_15,52,R_15,2016,0,0,0,-86.887652,33.463869,1,073,07000,660367,12,57.01,1022,0107,13820,0,PointAddress,E,100
AL,AL0108,14,AL0108-014,BIRMINGHAM PUBLIC - PRATT CITY BRANCH,1100 HIBERNIAN STREET,BIRMINGHAM,35214,4662,JEFFERSON,2057914997,BR,CC,5082,R_15,0,R_15,2964,R_15,52,R_15,2016,0,0,0,-86.87902,33.540854,1,073,07000,660367,12,11,1021,0107,13820,0,StreetAddress,E,100
AL,AL0108,16,AL0108-016,BIRMINGHAM PUBLIC - SMITHFIELD BRANCH,18TH AVENUE WEST,BIRMINGHAM,35204,,JEFFERSON,2053248428,BR,CC,8100,R_15,0,R_15,2964,R_15,52,R_15,2016,0,0,0,-86.879077,33.53781,1,073,07000,660367,12,11,2026,0107,13820,0,StreetAddress,E,92.078125
AL,AL0108,17,AL0108-005,BIRMINGHAM PUBLIC - SOUTHSIDE BRANCH,1814 11TH AVENUE SOUTH,BIRMINGHAM,35205,4808,JEFFERSON,2059337776,BR,CC,8000,R_15,0,R_15,2964,R_15,52,R_15,2016,0,0,0,-86.798224,33.499736,1,073,07000,660367,12,45,1188,0107,13820,0,PointAddress,E,100
AL,AL0108,18,AL0108-017,BIRMINGHAM PUBLIC - SPRINGVILLE ROAD REGIONAL BRANCH,1224 OLD SPRINGVILLE ROAD,BIRMINGHAM,35215,7512,JEFFERSON,2052264081,BR,CC,17100,R_15,0,R_15,3224,R_15,52,R_15,2016,0,0,0,-86.676381,33.615818,1,073,07000,660367,12,59.08,2038,0107,13820,0,StreetAddress,E,90.90625
AL,AL0108,19,AL0108-018,BIRMINGHAM PUBLIC - TITUSVILLE BRANCH,26TH AVENUE SW,BIRMINGHAM,35211,,JEFFERSON,2053221140,BR,CC,9000,R_15,0,R_15,2964,R_15,52,R_15,2016,0,0,0,-86.876464,33.476852,1,073,07000,660367,12,57.02,3002,0107,13820,0,StreetName,E,88.640625
AL,AL0108,20,AL0108-019,BIRMINGHAM PUBLIC - WEST END BRANCH,1348 TUSCALOOSA AVE. SW,BIRMINGHAM,35211,1948,JEFFERSON,2052264089,BR,CC,8200,R_15,0,R_15,2964,R_15,52,R_15,2016,0,0,0,-86.855058,33.492295,1,073,07000,660367,12,40,4033,0107,13820,0,PointAddress,E,100
AL,AL0108,21,AL0108-020,BIRMINGHAM PUBLIC - WOODLAWN BRANCH,5709 FIRST AVENUE NORTH,BIRMINGHAM,35212,1603,JEFFERSON,2055952001,BR,CC,6500,R_15,0,R_15,1872,R_15,52,R_15,2016,0,0,0,-86.750275,33.542042,1,073,07000,660367,12,3,1054,0107,13820,0,StreetAddress,E,100
AL,AL0108,22,AL0108-021,BIRMINGHAM PUBLIC - WYLAM BRANCH,"4300 7TH AVENUE, WYLAM",BIRMINGHAM,35224,,JEFFERSON,2057850349,BR,CC,3100,R_15,0,R_15,1872,R_15,52,R_15,2016,0,0,0,-86.920035,33.505732,1,073,07000,660367,12,35,2052,0107,13820,0,StreetAddress,E,100
AL,AL0109,2,504-000,FORT PAYNE - DEKALB COUNTY PUBLIC LIBRARY,504 GRAND AVENUE NW,FORT PAYNE,35967,2314,DEKALB,2568452671,CE,NO,10193,R_15,0,R_15,2489,R_15,52,R_15,2016,0,0,0,-85.720317,34.444933,1,049,27616,71130,32,9611,1070,0104,0,,StreetAddress,E,100
AL,AL0109,6,AL0109-006,FORT PAYNE - DEKALB COUNTY BOOKMOBILE,504 GRAND AVENUE NW,FORT PAYNE,35967,2314,DEKALB,2568452671,BS,NO,,R_15,1,R_15,400,R_15,52,R_15,2016,0,0,0,-85.720317,34.444933,1,049,27616,71130,32,9611,1070,0104,0,,StreetAddress,E,100
AL,AL0110,2,AL0109-005,COLLINSVILLE PUBLIC LIBRARY,151 MAIN STREET,COLLINSVILLE,35961,,DEKALB,2565242323,CE,NO,3000,R_15,0,R_15,1780,R_15,52,R_15,2016,0,0,0,-85.861103,34.263986,1,049,16600,71130,42,9608,3100,0104,0,,StreetAddress,E,92.421875
AL,AL0111,2,504-001,GERALDINE PUBLIC LIBRARY,13543 ALABAMA HIGHWAY 227,GERALDINE,35974,,DEKALB,2566596663,CE,NO,6980,R_15,0,R_15,2080,R_15,52,R_15,2016,0,0,0,-86.005982,34.358846,1,049,29608,71130,42,9606,3058,0104,0,,StreetAddress,E,100
AL,AL0112,2,504-002,RAINSVILLE PUBLIC LIBRARY,941 EAST MAIN STREET,RAINSVILLE,35986,4532,DEKALB,2566383311,CE,NO,9100,R_15,0,R_15,2519,R_15,52,R_15,2016,0,0,0,-85.87707,34.464065,1,049,69840,71130,42,9604,5037,0104,0,,StreetName,E,90.53125
AL,AL0113,3,504-003,ESCAMBIA COUNTY COOPERATIVE LIBRARY SYSTEM,700 EAST CHURCH STREET,ATMORE,36502,2630,ESCAMBIA,2513684130,CE,NO,360,R_15,0,R_15,1820,R_15,52,R_15,2016,0,0,0,-87.485642,31.022655,1,053,03004,37789,32,9707,2036,0101,0,,StreetAddress,E,100
AL,AL0114,2,505-000,ATMORE PUBLIC LIBRARY,700 E. CHURCH STREET,ATMORE,36502,2630,ESCAMBIA,2513685234,CE,NO,15000,R_15,0,R_15,2548,R_15,52,R_15,2016,0,0,0,-87.485642,31.022655,1,053,03004,37789,32,9707,2036,0101,0,,StreetAddress,E,100
AL,AL0115,2,505-001,BREWTON PUBLIC LIBRARY,206 WEST JACKSON STREET,BREWTON,36426,1518,ESCAMBIA,2518674626,CE,NO,7459,R_15,0,R_15,2432,R_15,52,R_15,2016,0,0,0,-87.070355,31.120287,1,053,09208,37789,32,9701,2101,0101,0,,StreetAddress,E,100
AL,AL0116,2,505-002,FLOMATON PUBLIC LIBRARY,436 HOUSTON STREET,FLOMATON,36441,5453,ESCAMBIA,2512963552,CE,NO,9324,R_15,0,R_15,2450,R_15,52,R_15,2016,0,0,0,-87.262727,31.002317,1,053,26824,37789,32,9703,2087,0101,0,,StreetAddress,E,100
AL,AL0117,2,506-000,GADSDEN - ETOWAH COUNTY PUBLIC LIBRARY,254 COLLEGE STREET,GADSDEN,35901,4135,ETOWAH,2565494699,CE,CC,50000,R_15,0,R_15,2670,R_15,52,R_15,2016,0,0,0,-86.009861,34.01237,1,055,28696,103057,13,12,1036,0104,23460,0,StreetAddress,E,100
AL,AL0117,5,505-003,GADSDEN - ETOWAH COUNTY PUBLIC - EAST GADSDEN BRANCH,809 EAST BROAD STREET,GADSDEN,35903,2444,ETOWAH,2565494691,BR,,1600,R_15,0,R_15,1984,R_15,52,R_15,2016,0,0,0,-85.984761,34.002167,1,055,28696,103057,13,13,2040,0104,23460,0,PointAddress,E,100
AL,AL0117,8,AL0117-002,HOYT WARSHAM ALABAMA CITY BRANCH LIBRARY,2700 WEST MEIGHAN BLVD,GADSDEN,35904,1716,ETOWAH,2565494688,BR,CC,2500,R_15,0,R_15,1984,R_15,52,R_15,2016,0,0,0,-86.045396,34.022581,1,055,28696,103057,13,6,1000,0104,23460,0,StreetAddress,E,100
AL,AL0118,2,AL0117-008,ATTALLA - ETOWAH COUNTY PUBLIC LIBRARY,604 NORTH 4TH STREET,ATTALLA,35954,2033,ETOWAH,2565389266,CE,NC,2500,R_15,0,R_15,2340,R_15,52,R_15,2016,0,0,0,-86.087321,34.025074,1,055,03028,103057,23,101,2021,0104,23460,0,Postal,E,100
AL,AL0119,2,999-082,RAINBOW CITY PUBLIC LIBRARY,3702 RAINBOW DRIVE,RAINBOW CITY,35906,6324,ETOWAH,2564428477,CE,NC,10508,R_15,0,R_15,2738,R_15,52,R_15,2016,0,0,0,-86.046784,33.950353,1,055,63288,103057,23,104.01,1000,0104,23460,0,PointAddress,E,100
AL,AL0121,2,508-001,DEMOPOLIS PUBLIC LIBRARY,211 E. WASHINGTON STREET,DEMOPOLIS,36732,2102,MARENGO,3342891595,CE,NO,19980,R_15,0,R_15,2080,R_15,52,R_15,2016,0,0,0,-87.835651,32.517338,1,091,20296,20028,33,9729,5056,0107,0,,PointAddress,E,100
AL,AL0122,2,508-002,MARENGO COUNTY PUBLIC LIBRARY,210 NORTH SHILOH STREET,LINDEN,36748,1522,MARENGO,3342952246,CE,NO,2300,R_15,0,R_15,1729,R_15,52,R_15,2016,0,0,0,-87.796499,32.306397,1,091,43240,20028,43,9730,6031,0107,0,,StreetAddress,E,100
AL,AL0123,4,509-000,MARSHALL COUNTY COOPERATIVE LIBRARY,600 COLLEGE STREET SUITE 100,ALBERTVILLE,35950,2722,MARSHALL,2568788523,BS,NO,,R_15,1,R_15,1550,R_15,52,R_15,2016,0,0,0,-86.199678,34.257103,1,095,00988,94725,32,308.02,5026,0104,10700,1,PointAddress,E,100
AL,AL0124,2,509-001,ARAB PUBLIC LIBRARY,325 2ND STREET NW,ARAB,35016,1346,MARSHALL,2565863366,CE,NO,7691,R_15,0,R_15,2210,R_15,52,R_15,2016,0,0,0,-86.496944,34.320345,1,095,02116,94725,32,304.01,2002,0104,10700,1,StreetAddress,E,100
AL,AL0125,2,509-002,BOAZ PUBLIC LIBRARY,404 THOMAS AVE.,BOAZ,35957,1726,MARSHALL,2565938056,CE,NO,22650,R_15,0,R_15,2799,R_15,52,R_15,2016,0,0,0,-86.160995,34.200691,1,095,07912,94725,32,312,4012,0104,10700,1,StreetAddress,E,100
AL,AL0126,2,509-003,GUNTERSVILLE PUBLIC LIBRARY,1240 O`BRIG AVENUE,GUNTERSVILLE,35976,1431,MARSHALL,2565717595,CE,NO,14900,R_15,0,R_15,2340,R_15,52,R_15,2016,0,0,0,-86.302129,34.349152,1,095,32416,94725,32,307.02,3042,0104,10700,1,StreetAddress,E,98.078125
AL,AL0127,2,509-004,ALBERTVILLE PUBLIC LIBRARY,200 JACKSON STREET,ALBERTVILLE,35950,2438,MARSHALL,2568918290,CE,NO,19536,R_15,0,R_15,2180,R_15,52,R_15,2016,0,0,0,-86.203009,34.264408,1,095,00988,94725,32,308.01,1043,0104,10700,1,StreetAddress,E,100
AL,AL0128,2,BR,HARRISON REGIONAL LIBRARY SYSTEM,50 LESTER STREET,COLUMBIANA,35051,9477,SHELBY,2056693910,CE,NC,6997,R_15,0,R_15,1992,R_15,52,R_15,2016,0,0,0,-86.608677,33.179906,1,117,16768,208713,31,307.03,1008,0106,13820,0,StreetAddress,E,100
AL,AL0128,4,510-000,HARPERSVILLE PUBLIC LIBRARY,39397 HIGHWAY 25,HARPERSVILLE,35078,,SHELBY,2056728336,BR,NO,500,R_15,0,R_15,1404,R_15,52,R_15,2016,0,0,0,-86.439244,33.342268,1,117,33256,208713,42,301.03,1052,0106,13820,0,StreetAddress,E,100
AL,AL0128,5,BR,WESTOVER PUBLIC LIBRARY,3312 WESTOVER ROAD,WESTOVER,35147,4025,SHELBY,2056783375,BR,NO,225,R_15,0,R_15,468,R_15,52,R_15,2016,0,0,0,-86.519078,33.358205,1,117,81504,208713,42,301.02,2139,0106,13820,0,StreetAddress,E,100
AL,AL0129,2,510-001,ALABASTER - ALBERT L. SCOTT LIBRARY,100 9TH STREET N.W.,ALABASTER,35007,9172,SHELBY,2056646822,CE,NC,7200,R_15,0,R_15,3046,R_15,52,R_15,2016,0,0,0,-86.826696,33.244287,1,117,00820,208713,21,303.2,3021,0106,13820,0,StreetAddress,E,100
AL,AL0130,2,510-002,CALERA PUBLIC LIBRARY,9700 HIGHWAY 25,CALERA,35040,6811,SHELBY,2056687200,CE,NO,3200,R_15,0,R_15,2860,R_15,52,R_15,2016,0,0,0,-86.768626,33.097194,1,117,11416,208713,41,305.01,1057,0106,13820,0,StreetAddress,E,100
AL,AL0131,2,510-003,COLUMBIANA PUBLIC LIBRARY,50 LESTER STREET,COLUMBIANA,35051,9477,SHELBY,2056695812,CE,NO,3300,R_15,0,R_15,2600,R_15,52,R_15,2016,0,0,0,-86.608677,33.179906,1,117,16768,208713,31,307.03,1008,0106,13820,0,StreetAddress,E,100
AL,AL0132,2,510-004,HELENA - JANE B. HOLMES PUBLIC LIBRARY,230 TUCKER ROAD,HELENA,35080,7036,SHELBY,2056648308,CE,NC,6600,R_15,0,R_15,2219,R_15,52,R_15,2016,0,0,0,-86.842575,33.289137,1,117,34024,208713,21,303.17,3000,0106,13820,0,StreetAddress,E,100
AL,AL0133,2,510-005,VINCENT - LALLOUSE MCGRAW PUBLIC LIBRARY,42850 HIGHWAY 25,VINCENT,35178,,SHELBY,2056722749,CE,NO,1500,R_15,0,R_15,1560,R_15,52,R_15,2016,0,0,15,-86.410898,33.386767,1,117,79008,208713,42,301.02,3002,0106,13820,0,StreetAddress,E,100
AL,AL0134,2,510-006,PARNELL MEMORIAL LIBRARY,277 PARK DRIVE,MONTEVALLO,35115,3882,SHELBY,2056659207,CE,NC,12375,R_15,0,R_15,2288,R_15,52,R_15,2016,0,0,0,-86.858645,33.101367,1,117,50312,208713,21,304.06,1042,0106,13820,0,StreetAddress,E,100
AL,AL0135,2,510-007,PELHAM PUBLIC LIBRARY,3160 PELHAM PARKWAY,PELHAM,35124,2029,SHELBY,2056206418,CE,NC,12000,R_15,0,R_15,3068,R_15,52,R_15,2016,0,0,0,-86.810801,33.287688,1,117,58848,208713,21,303.15,2015,0106,13820,0,StreetAddress,E,100
AL,AL0136,2,510-008,WILSONVILLE - VERNICE STOUDENMIRE LIBRARY,9905 NORTH MAIN STREET,WILSONVILLE,35186,,SHELBY,2056696180,CE,NO,900,R_15,0,R_15,1573,R_15,52,R_15,2016,0,0,0,-86.484016,33.23449,1,117,82848,208713,42,308,1204,0106,13820,0,StreetAddress,E,100
AL,AL0137,2,AL0137-002,NORTH SHELBY COUNTY LIBRARY,5521 CAHABA VALLEY ROAD,BIRMINGHAM,35242,4901,SHELBY,2054395500,CE,NC,26000,R_15,0,R_15,2686,R_15,52,R_15,2016,0,0,0,-86.716136,33.365376,1,117,58848,208713,21,303.42,1001,0106,13820,0,StreetAddress,E,100
AL,AL0137,3,AL0137-003,MT LAUREL LIBRARY,111 OLMSTED STREET,BIRMINGHAM,35242,1811,SHELBY,2059911660,BR,NC,1500,R_15,0,R_15,2392,R_15,52,R_15,2016,0,0,15,-86.629471,33.40933,1,117,69978,208713,21,302.11,1089,0106,13820,0,StreetAddress,E,100
AL,AL0140,2,511-002,ALICEVILLE PUBLIC LIBRARY,416 THIRD AVENUE NE,ALICEVILLE,35442,2207,PICKENS,2053736691,CE,NO,3900,R_15,0,R_15,1736,R_15,52,R_15,2016,0,0,0,-88.147756,33.129274,1,107,01228,20864,43,504,1163,0107,46220,0,StreetAddress,E,100
AL,AL0141,2,511-003,CARROLLTON PUBLIC LIBRARY,225 COMMERCE AVENUE,CARROLLTON,35447,,PICKENS,2053672142,CE,NO,4635,R_15,0,R_15,1338,R_15,52,R_15,2016,0,0,0,-88.094446,33.25807,1,107,12304,20864,42,503,2016,0107,46220,0,StreetAddress,E,100
AL,AL0142,2,511-004,GORDO - RUTH HOLLIMAN MEMORIAL PUBLIC LIBRARY,287 MAIN STREET SOUTH,GORDO,35466,,PICKENS,2053647148,CE,NO,2800,R_15,0,R_15,1441,R_15,52,R_15,2016,0,0,0,-87.903067,33.318578,1,107,30736,20864,42,500,3022,0107,46220,0,StreetAddress,E,100
AL,AL0143,2,512-000,REFORM PUBLIC LIBRARY,302 FIRST STREET SOUTH,REFORM,35481,,PICKENS,2053756240,CE,NO,3815,R_15,0,R_15,1616,R_15,52,R_15,2016,0,0,0,-88.014521,33.380932,1,107,64104,20864,42,501,4076,0107,46220,0,StreetAddress,E,92.421875
AL,AL0144,2,512-001,ST. CLAIR COUNTY LIBRARY,139 5TH AVENUE,ASHVILLE,35953,,ST. CLAIR,2055943694,CE,NC,1440,R_15,0,R_15,2080,R_15,52,R_15,2016,0,0,0,-86.254609,33.837309,1,115,02908,87074,42,404.01,3134,0103,13820,0,StreetAddress,E,100
AL,AL0145,2,512-002,ASHVILLE PUBLIC LIBRARY,196 SIXTH AVENUE,ASHVILLE,35953,,ST. CLAIR,2055947954,CE,NC,1873,R_15,0,R_15,1560,R_15,52,R_15,2016,0,0,0,-86.253442,33.836483,1,115,02908,87074,42,404.01,2012,0103,13820,0,PointAddress,E,100
AL,AL0146,2,512-003,MOODY - DORIS STANLEY MEMORIAL LIBRARY,1515 BOOKMARK LANE,MOODY,35004,2233,ST. CLAIR,2056402517,CE,NC,2800,R_15,0,R_15,2080,R_15,52,R_15,2016,0,0,0,-86.505859,33.590333,1,115,51096,87074,21,401.04,2009,0103,13820,0,Postal,E,100
AL,AL0147,2,999-031,ODENVILLE PUBLIC LIBRARY,200 ALABAMA STREET,ODENVILLE,35120,3072,ST. CLAIR,2056295901,CE,NC,3150,R_15,0,R_15,1832,R_15,52,R_15,2016,0,0,0,-86.39637,33.678714,1,115,56400,87074,42,405.02,4064,0103,13820,0,StreetName,E,100
AL,AL0148,2,513-001,PELL CITY PUBLIC LIBRARY,1923 1ST AVENUE NORTH,PELL CITY,35125,1663,ST. CLAIR,2058841015,CE,NC,5400,R_15,0,R_15,2652,R_15,52,R_15,2016,0,0,0,-86.286051,33.587257,1,115,58896,87074,32,402.03,3008,0103,13820,0,PointAddress,E,100
AL,AL0151,2,513-002,YORK - HIGHTOWER MEMORIAL LIBRARY,602 2ND AVENUE,YORK,36925,2215,SUMTER,2053922004,CE,NO,2500,R_15,0,R_15,1374,R_15,52,R_15,2016,0,0,0,-88.296753,32.486171,1,119,84096,13103,43,115,4051,0107,0,,StreetAddress,E,100
AL,AL0152,2,514-001,LIVINGSTON - RUBY PICKENS TARTT PUBLIC LIBRARY,206 MONROE ST.,LIVINGSTON,35470,,SUMTER,2056522349,CE,NO,6000,R_15,0,R_15,2257,R_15,52,R_15,2016,0,0,0,-88.187587,32.583474,1,119,43720,13103,43,113,5043,0107,0,,StreetName,E,100
AL,AL0154,2,514-001,ANNISTON AND CALHOUN COUNTY PUBLIC LIBRARY,108 EAST 10TH STREET,ANNISTON,36202,5662,CALHOUN,2562378501,CE,CC,33000,R_15,0,R_15,2832,R_15,52,R_15,2016,0,0,0,-85.828191,33.657069,1,015,01852,115620,13,8,1058,0103,11500,0,StreetAddress,E,92.078125
AL,AL0154,3,AL0154-006,ANNISTON AND CALHOUN  COUNTY - CARVER BRANCH,722 W. 14TH STREET,ANNISTON,36201,4411,CALHOUN,2562377271,BR,CC,2000,R_15,0,R_15,1647,R_15,52,R_15,2016,0,0,0,-85.838859,33.662316,1,015,01852,115620,13,5,2055,0103,11500,0,StreetAddress,E,100
AL,AL0154,6,514-002,ANNISTON AND CALHOUN COUNTY - BOOKMOBILE,108 EAST 10TH STREET,ANNISTON,36202,5662,CALHOUN,2562378501,BS,NO,,R_15,1,R_15,365,R_15,19,R_15,2016,0,0,0,-85.828191,33.657069,1,015,01852,115620,13,8,1058,0103,11500,0,StreetAddress,E,92.078125
AL,AL0155,2,514-003,JACKSONVILLE PUBLIC LIBRARY,200 PELHAM ROAD SOUTH,JACKSONVILLE,36265,2542,CALHOUN,2564356332,CE,NC,8834,R_15,0,R_15,2496,R_15,52,R_15,2016,0,0,0,-85.761275,33.812804,1,015,38272,115620,13,21.01,2094,0103,11500,0,StreetAddress,E,100
AL,AL0156,2,999-001,PIEDMONT PUBLIC LIBRARY,106 NORTH MAIN STREET,PIEDMONT,36272,2022,CALHOUN,2564473369,CE,NC,3600,R_15,0,R_15,2132,R_15,52,R_15,2016,0,0,0,-85.61354,33.923304,1,015,59640,115620,31,23,4053,0103,11500,0,StreetAddress,E,100
AL,AL0157,2,999-002,AKRON PUBLIC LIBRARY,207 FIRST AVENUE SOUTH,AKRON,35441,1951,HALE,2053723148,CE,NO,900,R_15,0,R_15,1600,R_15,50,R_15,2016,0,0,0,-87.742092,32.877296,1,065,00676,15068,42,401,1133,0107,46220,0,StreetName,E,100
AL,AL0158,3,999-002,DOTHAN - ASHFORD BRANCH LIBRARY,305 SIXTH AVENUE,ASHFORD,36312,4517,HOUSTON,3348993121,BR,NC,1000,R_15,0,R_15,1664,R_15,52,R_15,2016,0,0,0,-85.2337,31.182912,1,069,02836,104173,41,419,5050,0102,20020,0,PointAddress,E,100
AL,AL0158,7,999-002,DOTHAN - ROSSIE PURCELL  BRANCH PUBLIC LIBRARY,200 SOUTH MAIN STREET,COLUMBIA,36319,,HOUSTON,3347939767,BR,NC,1000,R_15,0,R_15,832,R_15,52,R_15,2016,0,0,0,-85.111853,31.290945,1,069,16744,104173,42,417,1056,0102,20020,0,PointAddress,E,100
AL,AL0158,8,AL0158-009,DOTHAN HOUSTON COUNTY LIBRARY SYSTEM,445 NORTH OATES STREET,DOTHAN,36302,4512,HOUSTON,3347939767,CE,,36000,R_15,0,R_15,2964,R_15,52,R_15,2016,0,0,0,-85.39408,31.228474,1,069,21184,104173,13,406,1020,0102,20020,0,StreetAddress,E,92.078125
AL,AL0158,9,999-003,DOTHAN HOUSTON COUNTY BOOKMOBILE,445 NORTH OATES STREET,DOTHAN,36303,4512,HOUSTON,3347939767,BS,,,R_15,1,R_15,832,R_15,52,R_15,2016,0,0,0,-85.39408,31.228474,1,069,21184,104173,13,406,1020,0102,20020,0,StreetAddress,E,100
AL,AL0158,10,AL0158-010,DOTHAN - WESTGATE BRANCH LIBRARY,535 RECREATION ROAD,DOTHAN,36303,2647,HOUSTON,3346992950,BR,,13000,R_15,0,R_15,2964,R_15,52,R_15,2016,0,0,0,-85.438819,31.238656,1,069,21184,104173,13,402.02,4040,0102,20020,0,StreetAddress,E,100
AL,AL0159,2,999-004,BLOUNTSVILLE PUBLIC LIBRARY,65 CHESTNUT STREET,BLOUNTSVILLE,35031,,BLOUNT,2054293156,CE,NC,2000,R_15,0,R_15,2000,R_15,52,R_15,2016,0,0,0,-86.589959,34.078928,1,009,07456,57673,42,505,3015,0106,13820,0,StreetAddress,E,100
AL,AL0160,2,999-005,CHEROKEE PUBLIC LIBRARY,118 CHURCH STREET,CHEROKEE,35616,7352,COLBERT,2563594384,CE,NO,3060,R_15,0,R_15,1040,R_15,52,R_15,2016,0,0,0,-87.972146,34.756395,1,033,14152,54354,42,210,3019,0104,22520,0,StreetAddress,E,100
AL,AL0161,2,999-006,BRENT - CENTREVILLE PUBLIC LIBRARY,20 LIBRARY STREET,CENTREVILLE,35042,2948,BIBB,2059264736,CE,NO,5000,R_15,0,R_15,1976,R_15,52,R_15,2016,0,0,0,-87.150908,32.947304,1,007,13672,22583,32,100.04,6038,0106,13820,0,StreetAddress,E,100
AL,AL0162,2,999-006,CHILTON - CLANTON PUBLIC LIBRARY,100 FIRST AVENUE,CLANTON,35045,3405,CHILTON,2057551768,CE,NO,8770,R_15,0,R_15,2496,R_15,52,R_15,2016,0,0,0,-86.624459,32.840765,1,021,15136,43943,32,601.02,3032,0106,13820,0,StreetAddress,E,100
AL,AL0162,3,999-006,CHILTON - CLANTON PUBLIC - JEMISON BRANCH LIBRARY,24568 US HIGHWAY 31,JEMISON,35085,4431,CHILTON,2056884491,BR,NO,1800,R_15,0,R_15,1040,R_15,52,R_15,2016,0,0,0,-86.743031,32.957479,1,021,38608,43943,42,604.01,1022,0106,13820,0,PointAddress,E,100
AL,AL0162,4,999-006,CHILTON - CLANTON PUBLIC - MAPLESVILLE BRANCH,9400 MAIN STREET,MAPLESVILLE,36750,,CHILTON,3343664211,BR,NO,2500,R_15,0,R_15,2080,R_15,52,R_15,2016,0,0,0,-86.766668,32.781342,1,021,,43943,42,606,1007,0106,13820,0,Postal,E,100
AL,AL0163,2,999-008,CHOCTAW COUNTY PUBLIC LIBRARY,124 NORTH ACADEMY AVENUE,BUTLER,36904,2206,CHOCTAW,2054592542,CE,NO,7500,R_15,0,R_15,1000,R_15,50,R_15,2016,0,0,0,-88.220104,32.090149,1,023,11032,13170,43,9568,5030,0107,0,,StreetAddress,E,100
AL,AL0163,3,999-007,CHOCTAW COUNTY PUBLIC - GILBERTOWN BRANCH,251 COLLEGE STREET,GILBERTOWN,36908,5704,CHOCTAW,2518435265,BR,NO,3000,R_15,0,R_15,1536,R_15,50,R_15,2016,0,0,0,-88.316714,31.874512,1,023,29704,13170,43,9569,4050,0107,0,,StreetAddress,E,100
AL,AL0163,4,999-007,CHOCTAW COUNTY PUBLIC - SILAS BRANCH,130 INDIAN WAY,SILAS,36919,,CHOCTAW,2518435265,BR,NO,,U_15,,U_15,,U_15,,U_15,2016,3,0,0,-88.326805,31.768246,1,023,70416,13170,43,9570,1086,0107,0,,StreetName,E,100
AL,AL0164,2,999-009,CITRONELLE MEMORIAL LIBRARY,7855 STATE STREET,CITRONELLE,36522,2450,MOBILE,2518667319,CE,NC,5200,R_15,0,R_15,1872,R_15,52,R_15,2016,0,0,0,-88.228795,31.090887,1,097,15064,415395,42,60,1014,0101,33660,0,StreetAddress,E,100
AL,AL0165,2,999-010,GROVE HILL PUBLIC LIBRARY,108 DUBOSE AVENUE,GROVE HILL,36451,3120,CLARKE,2512758157,CE,NO,7431,R_15,0,R_15,2001,R_15,52,R_15,2016,0,0,0,-87.775871,31.705389,1,025,32080,24675,43,9578,2049,0101,0,,PointAddress,E,100
AL,AL0166,3,999-010,HUNTSVILLE PUBLIC - BESSIE K. RUSSELL BRANCH,3011-C SPARKMAN DRIVE,HUNTSVILLE,35810,3713,MADISON,2568599050,BR,CC,2000,R_15,0,R_15,2306,R_15,52,R_15,2016,0,0,0,-86.61125,34.760535,1,089,37000,353089,12,7.02,1009,0105,26620,0,StreetAddress,T,92.421875
AL,AL0166,5,999-010,HUNTSVILLE PUBLIC - ELEANOR E. MURPHY BRANCH,7910 CHARLOTTE DRIVE,HUNTSVILLE,35802,2862,MADISON,2568815620,BR,CC,3300,R_15,0,R_15,2806,R_15,52,R_15,2016,0,0,0,-86.572972,34.660227,1,089,37000,353089,12,28.01,2001,0105,26620,0,StreetAddress,E,92.421875
AL,AL0166,6,999-010,GURLEY PUBLIC LIBRARY,225 WALKER STREET,GURLEY,35748,8330,MADISON,2567762102,BR,NC,3000,R_15,0,R_15,1852,R_15,52,R_15,2016,0,0,0,-86.371718,34.696128,1,089,32440,353089,41,109.02,1132,0105,26620,0,PointAddress,E,100
AL,AL0166,8,AL0166-026,HUNTSVILLE PUBLIC - MADISON BRANCH LIBRARY,130 PLAZA DRIVE,MADISON,35758,1160,MADISON,2564610046,BR,NC,15000,R_15,0,R_15,3209,R_15,52,R_15,2016,0,0,0,-86.745015,34.71031,1,089,45784,353089,21,110.14,3062,0105,26620,0,StreetAddress,E,90.90625
AL,AL0166,9,AL0166-017,HUNTSVILLE PUBLIC - ELIZABETH CARPENTER PUBLIC LIBRARY,5496 MAIN STREET,NEW HOPE,35760,8608,MADISON,2567232995,BR,NC,1950,R_15,0,R_15,2102,R_15,52,R_15,2016,0,0,0,-86.394369,34.536197,1,089,54168,353089,42,114,2083,0105,26620,0,StreetAddress,E,90.90625
AL,AL0166,13,999-010,HUNTSVILLE PUBLIC - TRIANA BRANCH,280 ZIERDT ROAD,MADISON,35756,8208,MADISON,2567729943,BR,CC,850,R_15,0,R_15,1953,R_15,52,R_15,2016,0,0,0,-86.736579,34.585604,1,089,76824,353089,41,112,1061,0105,26620,0,StreetAddress,E,100
AL,AL0166,15,999-011,HUNTSVILLE - MADISON COUNTY PUBLIC LIBRARY BOOKMOBILE,915 MONROE STREET,HUNTSVILLE,35804,,MADISON,2565325950,BS,,,R_15,1,R_15,1000,R_15,52,R_15,2016,8,0,0,-86.593424,34.727599,1,089,37000,353089,12,31,1046,0105,26620,0,Postal,E,100
AL,AL0166,16,999-010,HUNTSVILLE PUBLIC - BAILEY COVE BRANCH LIBRARY,1409 WEATHERLY PLAZA,HUNTSVILLE,35803,2617,MADISON,2568810257,BR,NC,9990,R_15,0,R_15,3209,R_15,52,R_15,2016,0,0,0,-86.540272,34.643963,1,089,37000,353089,12,29.12,1025,0105,26620,0,StreetAddress,E,92.421875
AL,AL0166,17,999-010,"HUNTSVILLE PUBLIC - DR. RICHARD SHOWERS, SR. LIBRARY",4600 BLUE SPRING ROAD,HUNTSVILLE,35810,1949,MADISON,2568517492,BR,CC,3000,R_15,0,R_15,2199,R_15,52,R_15,2016,0,0,0,-86.598698,34.783228,1,089,37000,353089,12,3.02,1031,0105,26620,0,StreetAddress,E,92.421875
AL,AL0166,22,999-010,HUNTSVILLE PUBLIC - TILLMAN HILL BRANCH,131 KNOWLEDGE DRIVE,HAZEL GREEN,35750,,MADISON,2568289529,BR,CC,5000,R_15,0,R_15,2408,R_15,52,R_15,2016,0,0,0,-86.572442,34.934349,1,089,33808,353089,31,103.01,3018,0105,26620,0,StreetAddress,E,100
AL,AL0166,23,999-010,HUNTSVILLE PUBLIC - MONROVIA BRANCH LIBRARY,254 ALLEN DRAKE ROAD,HUNTSVILLE,35806,1314,MADISON,2564893392,BR,NC,5000,R_15,0,R_15,1625,R_15,52,R_15,2016,0,0,0,-86.71499,34.811926,1,089,,353089,21,105.01,3031,0105,26620,0,StreetAddress,E,90.90625
AL,AL0166,25,999-010,HUNTSVILLE - MADISON COUNTY PUBLIC LIBRARY,915 MONROE STREET,HUNTSVILLE,35804,,MADISON,2565325950,CE,CC,123000,R_15,0,R_15,3408,R_15,52,R_15,2016,0,0,0,-86.593424,34.727599,1,089,37000,353089,12,31,1046,0105,26620,0,Postal,E,100
AL,AL0166,26,999-010,HUNTSVILLE PUBLIC - OSCAR MASON BRANCH,149 MASON COURT,HUNTSVILLE,35805,2815,MADISON,2565352249,BR,NC,1428,R_15,0,R_15,1625,R_15,52,R_15,2016,0,0,0,-86.60464,34.728842,1,089,37000,353089,12,12,2029,0105,26620,0,StreetAddress,E,92.421875
AL,AL0167,2,999-012,"EUTAW - JAMES C. POOLE, JR. MEMORIAL LIIBRARY",420 PRAIRIE AVENUE,EUTAW,35462,5114,GREENE,2053729026,CE,NO,6201,R_15,0,R_15,1789,R_15,52,R_15,2016,0,0,0,-87.887951,32.837515,1,063,24664,8479,42,601,4003,0107,0,,StreetAddress,E,100
AL,AL0168,2,999-013,GREENVILLE - BUTLER COUNTY PUBLIC LIBRARY,309 FORT DALE STREET,GREENVILLE,36037,1401,BUTLER,3343823216,CE,NO,13777,R_15,0,R_15,2432,R_15,52,R_15,2016,0,0,0,-86.626554,31.83206,1,013,31912,20154,32,9528,1039,0102,0,,StreetAddress,E,90.90625
AL,AL0169,2,999-014,HALE COUNTY LIBRARY,1103 MAIN STREET,GREENSBORO,36744,1503,HALE,3346243409,CE,NO,2378,R_15,0,R_15,1638,R_15,52,R_15,2016,0,0,0,-87.592803,32.7041,1,065,31720,15068,42,404,4001,0107,46220,0,StreetAddress,E,100
AL,AL0170,2,999-015,CHICKASAW - INA PULLEN SMALLWOOD MEMORIAL LIBRARY,224 GRANT STREET,CHICKASAW,36671,2153,MOBILE,2514526465,CE,NC,5979,R_15,0,R_15,1820,R_15,52,R_15,2016,0,0,0,-88.07829,30.76502,1,097,14392,415395,21,52,1020,0101,33660,0,StreetAddress,E,92.078125
AL,AL0171,2,999-016,JACKSON - WHITE SMITH MEMORIAL LIBRARY,213 COLLEGE AVENUE,JACKSON,36451,,CLARKE,2512464962,CE,NO,10000,R_15,0,R_15,2094,R_15,52,R_15,2016,0,0,0,-87.893787,31.512345,1,025,38152,24675,33,9579.02,3036,0101,0,,StreetAddress,E,92.078125
AL,AL0172,2,999-017,MARION - PERRY COUNTY PUBLIC LIBRARY,202 WASHINGTON STREET,MARION,36756,1824,PERRY,3346836411,CE,NO,2100,R_15,0,R_15,938,R_15,49,R_15,2016,0,0,0,-87.319062,32.63427,1,105,46768,9652,43,6870,1043,0107,0,,StreetAddress,E,100
AL,AL0173,2,999-018,WOODVILLE PUBLIC LIBRARY,26 VENSON STREET,WOODVILLE,35776,6115,JACKSON,2567762796,CE,NO,3643,R_15,0,R_15,1560,R_15,52,R_15,2016,0,0,0,-86.274698,34.627129,1,071,83664,52419,42,9505,1184,0105,42460,1,StreetAddress,E,100
AL,AL0174,2,999-019,CITY OF BAYOU LA BATRE PUBLIC LIBRARY,12747 PADGETT SWITCH ROAD,IRVINGTON,36544,4011,MOBILE,2518244213,CE,NC,3500,R_15,0,R_15,2080,R_15,40,R_15,2016,0,0,0,-88.240926,30.425839,1,097,04684,415395,41,73,3019,0101,33660,0,StreetAddress,E,100
AL,AL0175,2,999-020,SCOTTSBORO PUBLIC LIBRARY,1002 SOUTH BROAD STREET,SCOTTSBORO,35768,2512,JACKSON,2565744335,CE,NO,8500,R_15,0,R_15,2496,R_15,48,R_15,2016,0,0,0,-86.035058,34.661098,1,071,68736,52419,32,9508,4065,0105,42460,1,StreetAddress,E,100
AL,AL0176,2,999-021,ONEONTA PUBLIC LIBRARY,221 SECOND STREET SOUTH,ONEONTA,35121,2109,BLOUNT,2052747641,CE,NO,8000,R_15,0,R_15,2342,R_15,52,R_15,2016,0,0,0,-86.475337,33.944157,1,009,57000,57673,32,501.01,1018,0106,13820,0,StreetAddress,E,100
AL,AL0177,2,999-022,THOMASVILLE PUBLIC LIBRARY,1401 MOSLEY DRIVE,THOMASVILLE,36784,3334,CLARKE,3346365343,CE,NO,4404,R_15,0,R_15,2496,R_15,52,R_15,2016,0,0,0,-87.736286,31.93051,1,025,75960,24675,41,9576.02,1022,0107,0,,StreetAddress,E,100
AL,AL0178,2,999-023,MACON COUNTY - TUSKEGEE PUBLIC LIBRARY,302 SOUTH MAIN STREET,TUSKEGEE,36083,1832,MACON,3347275192,CE,NO,2860,R_15,0,R_15,2280,R_15,52,R_15,2016,0,0,0,-85.68905,32.4219,1,087,77304,19105,32,2320,1057,0103,0,,StreetAddress,E,100
AL,AL0179,2,999-024,MOUNDVILLE PUBLIC LIBRARY,279 MARKET STREET,MOUNDVILLE,35474,,HALE,2053712283,CE,,1100,R_15,0,R_15,2820,R_15,52,R_15,2016,0,0,0,-87.627578,32.997474,1,065,51648,15068,31,400,2117,0107,46220,0,StreetAddress,E,100
AL,AL0180,2,999-032,UNIONTOWN PUBLIC LIBRARY,108 WATER STREET,UNIONTOWN,36786,,PERRY,3346286681,CE,NO,3410,R_15,0,R_15,2100,R_15,52,R_15,2016,0,0,0,-87.514224,32.447129,1,105,77904,9652,43,6871,2038,0107,0,,StreetAddress,E,90.90625
AL,AL0181,2,999-026,PRICHARD PUBLIC LIBRARY,300 LOVEJOY LOOP WEST,PRICHARD,36610,3952,MOBILE,2514527847,CE,NC,10000,R_15,0,R_15,2120,R_15,52,R_15,2016,0,0,0,-88.083996,30.731727,1,097,62496,415395,21,77,2042,0101,33660,0,StreetAddress,E,90.9375
AL,AL0181,4,999-025,PRICHARD PUBLIC - MITCHELL BRANCH,4440 HIGHPOINT BLVD,EIGHT MILE,36613,3215,MOBILE,2514527847,BR,NC,1300,R_15,0,R_15,900,R_15,52,R_15,2016,0,0,0,-88.16108,30.760003,1,097,62496,415395,21,61.03,2060,0101,33660,0,StreetAddress,E,100
AL,AL0182,3,999-030,WASHINGTON COUNTY PUBLIC - MCINTOSH BRANCH LIBRARY,803 RIVER ROAD,MCINTOSH,36553,,WASHINGTON,2519442047,BR,NO,,U_15,0,R_15,1416,R_15,52,R_15,2016,0,0,0,-88.02619,31.265779,1,129,45472,16804,42,442,2106,0101,0,,StreetAddress,T,100
AL,AL0182,4,999-026,WASHINGTON COUNTY PUBLIC LIBRARY,14102 ST. STEPHENS AVE.,CHATOM,36518,6730,WASHINGTON,2518472097,CE,NO,15000,R_15,0,R_15,2080,R_15,52,R_15,2016,0,0,0,-88.243706,31.461165,1,129,14008,16804,43,440,2021,0101,0,,StreetAddress,E,100
AL,AL0182,6,AL0182-006,WASHINGTON COUNTY BOOKMOBILE,14102 ST. STEPHENS AVE,CHATOM,36518,6730,WASHINGTON,2518472097,BS,NO,,R_15,1,R_15,35,R_15,52,R_15,2016,0,0,0,-88.243706,31.461165,1,129,14008,16804,43,440,2021,0101,0,,StreetAddress,E,100
AL,AL0184,2,999-032,EVERGREEN - CONECUH COUNTY PUBLIC LIBRARY,119 CEMETERY AVENUE,EVERGREEN,36401,2936,CONECUH,2515782670,CE,NO,11432,R_15,0,R_15,2236,R_15,52,R_15,2016,0,0,0,-86.953754,31.433997,1,035,24808,12672,33,9606,1076,0102,0,,StreetAddress,E,100
AL,AL0186,2,AL0187-023,MOBILE PUBLIC LIBRARY - BEN MAY MAIN LIBRARY,701 GOVERNMENT STREET,MOBILE,36602,1402,MOBILE,2512087076,CE,CC,49258,R_15,0,R_15,3240,R_15,52,R_15,2016,0,0,0,-88.050674,30.687154,1,097,50000,415395,12,2,1185,0101,33660,0,PointAddress,E,100
AL,AL0186,4,999-032,MOBILE PUBLIC - PARKWAY BRANCH,1924-B DAUPHIN ISLAND PARKWAY,MOBILE,36602,3004,MOBILE,2514707766,BR,CC,8820,R_15,0,R_15,2600,R_15,52,R_15,2016,0,0,0,-88.089002,30.631312,1,097,50000,415395,12,74,4038,0101,33660,0,StreetAddress,E,92.078125
AL,AL0186,6,999-032,MOBILE PUBLIC - MOORER/SPRING HILL BRANCH,4 MCGREGOR AVENUE SOUTH,MOBILE,36633,1827,MOBILE,2514707770,BR,CC,11892,R_15,0,R_15,2800,R_15,52,R_15,2016,0,0,0,-88.144417,30.696087,1,097,50000,415395,12,33.02,1031,0101,33660,0,StreetAddress,E,92.078125
AL,AL0186,8,BR,MOBILE PUBLIC - TOULMINVILLE BRANCH,601 STANTON ROAD,MOBILE,36602,2209,MOBILE,2514387075,BR,CC,15395,R_15,0,R_15,2600,R_15,52,R_15,2016,0,0,0,-88.096606,30.708304,1,097,50000,415395,12,8,3012,0101,33660,0,StreetAddress,E,92.078125
AL,AL0186,11,AL0186-013,MOBILE PUBLIC - SARALAND BRANCH LIBRARY,111 SARALAND LOOP,MOBILE,36571,2418,MOBILE,2516752879,BR,NC,7168,R_15,0,R_15,2400,R_15,52,R_15,2016,0,0,0,-88.073709,30.824929,1,097,68160,415395,21,55,2008,0101,33660,0,PointAddress,E,95.40625
AL,AL0186,13,AL0186-017,MOBILE PUBLIC LIBRARY - BOOKMOBILE,700 GOVERNMENT STREET,MOBILE,36633,1403,MOBILE,2514387035,BS,CC,,R_15,2,R_15,610,R_15,52,R_15,2016,0,0,0,-88.050506,30.687268,1,097,50000,415395,12,2,1185,0101,33660,0,StreetAddress,E,92.078125
AL,AL0186,14,BR,MOBILE PUBLIC - WEST REGIONAL LIBRARY,5555 GRELOT ROAD,MOBILE,36602,3643,MOBILE,2513408555,BR,CC,49258,R_15,0,R_15,3100,R_15,52,R_15,2016,0,0,0,-88.17008,30.663559,1,097,50000,415395,12,37.04,1048,0101,33660,0,StreetAddress,E,92.078125
AL,AL0186,15,999-032,MOBILE PUBLIC - THEODORE OAKS BRANCH,"5808 HIGHWAY 90 WEST, SUITE E",MOBILE,36602,,MOBILE,2513565012,BR,CC,3452,R_15,0,R_15,2300,R_15,52,R_15,2016,0,0,0,-88.172418,30.555628,1,097,50000,415395,12,71.01,3032,0101,33660,0,StreetAddress,E,84.5
AL,AL0186,16,999-032,MOBILE PUBLIC - TRINITY GARDENS COMMUNITY BRANCH LIBRARY,2668 BERKLEY AVENUE,MOBILE,36602,1704,MOBILE,2514575954,BR,CC,1647,R_15,0,R_15,600,R_15,38,R_15,2016,0,0,0,-88.112088,30.733,1,097,50000,415395,12,39.01,1025,0101,33660,0,StreetAddress,E,92.078125
AL,AL0186,17,999-032,SEMMES BRANCH,9150 MOFFETT ROAD,MOBILE,36602,,MOBILE,2516456840,BR,CC,14050,R_15,0,R_15,1900,R_15,52,R_15,2016,0,0,0,-88.258402,30.77953,1,097,,415395,21,63.02,2004,0101,33660,0,Manual,E,100
AL,AL0187,2,999-037,MONTGOMERY CITY-COUNTY PUBLIC LIBRARY - JULIETTE HAMPTON MOR,245 HIGH STREET,MONTGOMERY,36104,4603,MONTGOMERY,3342404999,CE,CC,52000,R_15,0,R_15,3224,R_15,52,R_15,2016,0,0,0,-86.305411,32.371924,1,101,51000,226519,12,2,1032,0102,33860,0,StreetAddress,E,100
AL,AL0187,3,AL0187-022,MONTGOMERY CITY-COUNTY PUBLIC LIBRARY - COLISEUM BOULEVARD B,840 COLISEUM BOULEVARD,MONTGOMERY,36108,1208,MONTGOMERY,3342717005,BR,CC,7600,R_15,0,R_15,2340,R_15,52,R_15,2016,0,0,0,-86.259412,32.399998,1,101,51000,226519,12,18,1000,0102,33860,0,StreetAddress,E,92.078125
AL,AL0187,5,999-036,MONTGOMERY CITY-COUNTY PUBLIC LIBRARY- GOVERNOR`S SQUARE BRA,2885-B EAST SOUTH BOULEVARD,MONTGOMERY,36116,2513,MONTGOMERY,3342847929,BR,CC,12500,R_15,0,R_15,2340,R_15,52,R_15,2016,0,0,0,-86.248368,32.327438,1,101,51000,226519,12,28,2004,0102,33860,0,StreetAddress,E,100
AL,AL0187,8,999-036,MONTGOMERY CITY-COUNTY PUBLIC LIBRARY- PIKE ROAD BRANCH,9585 VAUGHN ROAD,PIKE ROAD,36064,2292,MONTGOMERY,3342448679,BR,NC,5700,R_15,0,R_15,2340,R_15,52,R_15,2016,0,0,0,-86.090954,32.346911,1,101,,226519,21,55.03,3110,0103,33860,0,StreetAddress,E,100
AL,AL0187,9,AL0187-002,MONTGOMERY CITY-COUNTY PUBLIC LIBRARY- PINE LEVEL BRANCH,20 KOHN DRIVE,RAMER,36069,5447,MONTGOMERY,3345847144,BR,NC,,U_15,,U_15,,U_15,,U_15,2016,3,0,0,-86.060602,32.064554,1,101,,226519,42,57,1031,0102,33860,0,PointAddress,E,100
AL,AL0187,10,999-036,MONTGOMERY CITY-COUNTY PUBLIC LIBRARY - PINTLALA BRANCH,255 FEDERAL ROAD,HOPE HULL,36043,,MONTGOMERY,3342818069,BR,CC,6700,R_15,0,R_15,2340,R_15,52,R_15,2016,0,0,0,-86.372913,32.176602,1,101,,226519,42,59.01,3009,0102,33860,0,StreetAddress,E,100
AL,AL0187,11,999-036,MONTGOMERY CITY-COUNTY PUBLIC LIBRARY - RAMER BRANCH,5444 STATE HIGHWAY 94,RAMER,36069,5008,MONTGOMERY,3345623364,BR,NC,4500,R_15,0,R_15,2340,R_15,52,R_15,2016,0,0,0,-86.218152,32.052134,1,101,,226519,42,58,2018,0102,33860,0,PointAddress,E,100
AL,AL0187,12,999-036,MONTGOMERY CITY-COUNTY PUBLIC LIBRARY - BERTHA P. WILLIAMS L,1276 ROSA PARKS AVENUE,MONTGOMERY,36108,,MONTGOMERY,3342404979,BR,CC,5228,R_15,0,R_15,2340,R_15,52,R_15,2016,0,0,0,-86.329895,32.357667,1,101,51000,226519,12,11,4005,0107,33860,0,Postal,E,100
AL,AL0187,17,999-036,MONTGOMERY CITY-COUNTY PUBLIC LIBRARY- EL LOWDER REGIONAL LI,3950 BELL ROAD,MONTGOMERY,36116,,MONTGOMERY,3342445770,BR,CC,9500,R_15,0,R_15,2860,R_15,52,R_15,2016,0,0,0,-86.195724,32.326298,1,101,51000,226519,12,56.05,2009,0102,33860,0,StreetAddress,E,100
AL,AL0187,22,999-036,MONTGOMERY CITY-COUNTY PUBLIC LIBRARY - RUFUS A. LEWIS REGIO,3095 MOBILE HIGHWAY,MONTGOMERY,36108,4002,MONTGOMERY,3342404848,BR,CC,9500,R_15,0,R_15,2860,R_15,52,R_15,2016,0,0,0,-86.338653,32.347951,1,101,51000,226519,12,24,4004,0107,33860,0,StreetAddress,E,100
AL,AL0187,23,999-036,MONTGOMERY CITY-COUNTY PUBLIC LIBRARY- HAMPSTEAD BRANCH,5240 HAMPSTEAD HIGH STREET,MONTGOMERY,36116,,MONTGOMERY,3342445770,BR,NC,3400,R_15,0,R_15,2340,R_15,52,R_15,2016,0,0,0,-86.187131,32.312442,1,101,51000,226519,41,56.11,1009,0102,33860,0,StreetAddress,E,100
AL,AL0188,2,999-040,WHITE HALL PUBLIC LIBRARY,640 FREEDOM ROAD,WHITE HALL,36040,4415,LOWNDES,3348747323,CE,NO,1200,R_15,0,R_15,1040,R_15,52,R_15,2016,0,0,0,-86.719921,32.287461,1,085,81912,10458,42,7810,3005,0107,33860,0,StreetAddress,E,100
AL,AL0189,2,516-002,STEVENSON PUBLIC LIBRARY,102 WEST MAIN STREET,STEVENSON,35772,3564,JACKSON,2564373008,CE,NO,5500,R_15,0,R_15,1221,R_15,52,R_15,2016,0,0,0,-85.83886,34.868657,1,071,73080,52419,42,9503,3171,0105,42460,1,StreetAddress,E,100
AL,AL0190,2,516-003,KILLEN PUBLIC LIBRARY,325 J. C. MAULDIN HIGHWAY,KILLEN,35645,9164,LAUDERDALE,2567575471,CE,NC,2000,R_15,0,R_15,2320,R_15,52,R_15,2016,0,0,0,-87.540936,34.859277,1,077,39784,92596,23,116.03,3048,0105,22520,0,StreetAddress,E,100
AL,AL0191,2,999-043,LEXINGTON PUBLIC LIBRARY,11075 HIGHWAY 101,LEXINGTON,35648,3760,LAUDERDALE,2562295579,CE,NC,13500,R_15,0,R_15,1196,R_15,52,R_15,2016,0,0,0,-87.371225,34.967751,1,077,42640,92596,42,117,3045,0105,22520,0,StreetAddress,E,100
AL,AL0192,2,999-044,AUTAUGA - PRATTVILLE PUBLIC LIBRARY,254 DOSTER STREET,PRATTVILLE,36067,3933,AUTAUGA,3343653396,CE,CC,12000,R_15,0,R_15,2600,R_15,52,R_15,2016,0,0,0,-86.468909,32.456939,1,001,62328,55347,41,207,1014,0102,33860,0,StreetAddress,E,100
AL,AL0192,3,999-043,AUTAUGAVILLE PUBLIC LIBRARY,107 N. TAYLOR ROAD,AUTAUGAVILLE,36003,,AUTAUGA,3343659563,BR,NC,1500,R_15,0,R_15,780,R_15,52,R_15,2016,0,0,0,-86.657128,32.431619,1,001,03220,55347,42,211,1081,0102,33860,0,StreetAddress,E,90.90625
AL,AL0192,4,999-043,BILLINGSLEY PUBLIC LIBRARY,2021 OFFICE STREET,BILLINGSLEY,36006,,AUTAUGA,2057559809,BR,NC,300,R_15,0,R_15,832,R_15,52,R_15,2016,0,0,0,-86.718608,32.65875,1,001,06460,55347,42,210,2061,0102,33860,0,StreetAddress,E,100
AL,AL0192,5,999-043,MARBURY PUBLIC LIBRARY,205 COUNTY RD. 20,MARBURY,36051,3129,AUTAUGA,3342057558,BR,NC,1200,R_15,0,R_15,832,R_15,52,R_15,2016,0,0,0,-86.5067,32.700141,1,001,46600,55347,42,209,3021,0102,33860,0,StreetAddress,T,92.421875
AL,AL0193,2,999-045,FAYETTE COUNTY MEMORIAL LIBRARY,326 TEMPLE AVENUE NORTH,FAYETTE,35555,2309,FAYETTE,2059326625,CE,NO,11090,R_15,0,R_15,2361,R_15,51,R_15,2016,0,0,0,-87.83076,33.687497,1,057,25840,16759,32,203,1055,0104,0,,StreetAddress,E,100
AL,AL0194,2,999-046,PHENIX CITY - RUSSELL COUNTY PUBLIC LIBRARY,1501 17TH AVENUE,PHENIX CITY,36867,4850,RUSSELL,3342971139,CE,NC,22000,R_15,0,R_15,2704,R_15,52,R_15,2016,0,0,0,-85.016091,32.47518,1,113,59472,59660,21,302,3013,0103,17980,0,PointAddress,E,100
AL,AL0195,5,AL0196-010,SELMA - DALLAS COUNTY PUBLIC LIBRARY,1103 SELMA AVENUE,SELMA,36701,4445,DALLAS,3348741725,CE,CC,25000,R_15,0,R_15,2524,R_15,52,R_15,2016,0,0,0,-87.02047,32.409023,1,047,69120,41131,32,9565,3064,0107,42820,1,StreetAddress,E,92.078125
AL,AL0196,2,999-047,WEAVER-BOLDEN BRANCH LIBRARY,2522 LANIER AVE,TUSCALOOSA,35401,5324,TUSCALOOSA,2057588291,BR,CC,6000,R_15,0,R_15,2148,R_15,52,R_15,2016,0,0,0,-87.579419,33.189857,1,125,77256,203976,13,117.01,1012,0107,46220,0,StreetAddress,E,100
AL,AL0196,5,999-047,TUSCALOOSA PUBLIC LIBRARY,1801 JACK WARNER PARKWAY,TUSCALOOSA,35401,1027,TUSCALOOSA,2053455820,CE,CC,60000,R_15,0,R_15,3217,R_15,52,R_15,2016,0,0,0,-87.562483,33.216205,1,125,77256,203976,13,114.02,1018,0107,46220,0,PointAddress,E,100
AL,AL0196,9,AL0196-009,TUSCALOOSA PUBLIC LIBRARY - BOOKMOBILE,1801 JACK WARNER PARKWAY,TUSCALOOSA,35401,1027,TUSCALOOSA,2053455820,BS,CC,,R_15,1,R_15,489,R_15,45,R_15,2016,0,0,0,-87.562483,33.216205,1,125,77256,203976,13,114.02,1018,0107,46220,0,PointAddress,E,100
AL,AL0196,10,999-048,BROWN BRANCH LIBRARY,300B BOBBY MILLER PARKWAY,TUSCALOOSA,35405,6304,TUSCALOOSA,2053919989,BR,CC,4000,R_15,0,R_15,1686,R_15,52,R_15,2016,0,0,0,-87.53735,33.121967,1,125,,203976,22,125.03,2028,0107,46220,0,StreetAddress,E,100
AL,AL0196,11,999-048,TUSCALOOSA PUBLIC LIBRARY BOOKMOBILE 2,1801 JACK WARNER PARKWAY,TUSCALOOSA,35401,1027,TUSCALOOSA,2053455820,BS,CC,,R_15,1,R_15,387,R_15,52,R_15,2016,0,0,0,-87.562483,33.216205,1,125,77256,203976,13,114.02,1018,0107,46220,0,PointAddress,E,100
AL,AL0197,2,AL0199-010,WILCOX COUNTY LIBRARY,100 BROAD STREET,CAMDEN,36726,1756,WILCOX,3346824355,CE,NO,6000,R_15,0,R_15,2340,R_15,52,R_15,2016,0,0,0,-87.289824,31.991875,1,131,11512,11059,43,348,4063,0107,0,,StreetAddress,E,100
AL,AL0197,3,999-048,WILCOX COUNTY - PINE APPLE BRANCH LIBRARY,124 COUNTY ROAD 59,PINE APPLE,36768,,WILCOX,3346824355,BR,NO,800,R_15,0,R_15,920,R_15,52,R_15,2016,0,0,0,-86.992557,31.882151,1,131,59880,11059,43,352,1097,0107,0,,StreetAddress,E,100
AL,AL0197,4,999-049,WILCOX COUNTY - PINE HILL BRANCH LIBRARY,530 OAK GROVE STREET,PINE HILL,36769,,WILCOX,3346824355,BR,NO,2500,R_15,0,R_15,940,R_15,52,R_15,2016,0,0,0,-87.588969,31.987628,1,131,60240,11059,42,351,3024,0107,0,,StreetAddress,E,100
AL,AL0198,2,AL0199-011,MONROE COUNTY PUBLIC LIBRARY,121 PINEVILLE ROAD,MONROEVILLE,36460,1857,MONROE,2517433818,CE,NO,10000,R_15,0,R_15,2040,R_15,52,R_15,2016,0,0,0,-87.323596,31.528055,1,099,50192,21673,33,760,3041,0101,0,,StreetAddress,E,100
AL,AL0199,2,AL0199-012,CULLMAN COUNTY PUBLIC LIBRARY,200 CLARK STREET NE,CULLMAN,35055,2913,CULLMAN,2567342720,CE,NO,9300,R_15,0,R_15,2587,R_15,52,R_15,2016,0,0,0,-86.841189,34.17969,1,043,18976,82005,32,9649,3049,0104,18980,1,StreetAddress,E,100
AL,AL0199,3,999-051,CULLMAN COUNTY PUBLIC - HANCEVILLE BRANCH,201 COMMERCE ST.,HANCEVILLE,35077,,CULLMAN,2563520685,BR,NO,1600,R_15,0,R_15,1680,R_15,52,R_15,2016,0,0,0,-86.754781,34.063914,1,043,32968,82005,32,9654.02,2011,0104,18980,1,Postal,E,100
AL,AL0199,10,AL0199-013,CULLMAN COUNTY PUBLIC - BOOKMOBILE,200 CLARK ST. NE,CULLMAN,35055,2913,CULLMAN,2567341068,BS,NO,,R_15,1,R_15,214,R_15,38,R_15,2016,0,0,0,-86.841189,34.17969,1,043,18976,82005,32,9649,3049,0104,18980,1,StreetAddress,E,100
AL,AL0199,11,999-052,CULLMAN COUNTY PUBLIC - COLONY BRANCH LIBRARY,151 BYARS ROAD,HANCEVILLE,35072,,CULLMAN,2562871573,BR,NO,1600,R_15,0,R_15,1680,R_15,52,R_15,2016,0,0,0,-86.887731,33.947985,1,043,,82005,42,9655,3057,0104,18980,1,StreetAddress,E,92.078125
AL,AL0199,13,999-051,CULLMAN PUBLIC LIBARY - GARDEN CITY BRANCH LIBRARY,501 FIRST AVENUE S,GARDEN CITY,35070,,CULLMAN,2563524552,BR,NO,1400,R_15,0,R_15,944,R_15,52,R_15,2016,0,0,0,-86.74954,34.01039,1,043,29032,82005,42,9654.02,3054,0104,18980,1,StreetAddress,E,92.078125
AL,AL0199,14,999-052,CULLMAN PUBLIC LIBRARY - GUY HUNT LIBRARY - HOLLY POND,60 LIONS PARK ROAD,HOLLY POND,35083,1100,CULLMAN,2567965226,BR,NO,1400,R_15,0,R_15,1128,R_15,52,R_15,2016,0,0,0,-86.622293,34.180728,1,043,35560,82005,42,9653,1005,0104,18980,1,StreetName,E,100
AL,AL0200,2,999-081,VALLEY - H. GRADY BRADSHAW CHAMBERS COUNTY LIBRARY,3419 20TH AVENUE,VALLEY,36854,3212,CHAMBERS,3347682161,CE,NO,25000,R_15,0,R_15,2202,R_15,52,R_15,2016,0,0,0,-85.177732,32.838772,1,017,78204,34123,32,9546,2023,0103,46740,1,PointAddress,E,100
AL,AL0200,3,512-004,LAFAYETTE PILOT PUBLIC LIBRARY,198 1ST STREET SE,LAFAYETTE,36862,2066,CHAMBERS,3347682161,BR,NO,2500,R_15,0,R_15,1277,R_15,52,R_15,2016,0,0,0,-85.400267,32.898432,1,017,40672,34123,42,9540,2059,0103,46740,1,StreetAddress,E,100
AL,AL0203,2,999-063,HOKES BLUFF - RUFUS FLOYD PUBLIC LIBRARY,3310 ALFORDS BEND ROAD,HOKES BLUFF,35903,4826,ETOWAH,2564929846,CE,NC,5000,R_15,0,R_15,2323,R_15,51,R_15,2016,0,0,0,-85.866086,33.991942,1,055,35392,103057,23,106.01,2025,0104,23460,0,StreetAddress,E,98.953125
AL,AL0204,2,504-004,RAGLAND PUBLIC LIBRARY,26 PROVIDENCE ROAD,RAGLAND,35131,4352,ST. CLAIR,2054722007,CE,NC,2925,R_15,0,R_15,1352,R_15,52,R_15,2016,0,0,0,-86.144511,33.74387,1,115,63216,87074,42,403,1054,0103,13820,0,PointAddress,E,100
AL,AL0206,2,999-053,HAYNEVILLE - LOWNDES COUNTY PUBLIC LIBRARY,215 B TUSKEENA STREET,HAYNEVILLE,36040,,LOWNDES,3345482686,CE,NO,6424,R_15,0,R_15,1456,R_15,52,R_15,2016,0,0,0,-86.585241,32.183869,1,085,33712,10458,42,7808,2016,0107,33860,0,StreetAddress,T,92.421875
AL,AL0208,2,517-002,IDER PUBLIC LIBRARY,11309 ALABAMA HIGHWAY 75 UNIT 1,IDER,35981,,DEKALB,2566572170,CE,NO,1350,R_15,0,R_15,1261,R_15,52,R_15,2016,0,0,0,-85.672885,34.690897,1,049,37312,71130,42,9601,5039,0104,0,,StreetAddress,E,100
AL,AL0209,2,999-076,EUFAULA CARNEGIE LIBRARY,217 NORTH EUFAULA AVENUE,EUFAULA,36027,1515,BARBOUR,3346872337,CE,NO,19976,R_15,0,R_15,2672,R_15,52,R_15,2016,0,0,0,-85.145606,31.894026,1,005,24568,26489,32,9508,1057,0102,0,,StreetAddress,E,100
AL,AL0209,3,509-005,EUFAULA - MCCOO MEMORIAL CHILDREN`S LIBRARY,217 N. EUFAULA AVE.,EUFAULA,36027,1515,BARBOUR,3346872336,BR,NO,1500,R_15,0,R_15,2600,R_15,52,R_15,2016,0,0,0,-85.145606,31.894026,1,005,24568,26489,32,9508,1057,0102,0,,StreetAddress,E,100
AL,AL0210,2,107-005,GRANT PUBLIC LIBRARY,5379 MAIN STREET,GRANT,35747,8320,MARSHALL,2567285128,CE,NO,2580,R_15,0,R_15,1664,R_15,52,R_15,2016,0,0,0,-86.252872,34.526414,1,095,31096,94725,42,302.02,1047,0104,10700,1,StreetAddress,E,100
AL,AL0211,2,107-006,DALEVILLE PUBLIC LIBRARY,308 DONNELL BOULEVARD,DALEVILLE,36322,2118,DALE,3345039119,CE,NC,6768,R_15,0,R_15,2027,R_15,52,R_15,2016,0,0,0,-85.707057,31.314859,1,045,19360,49565,32,211.02,3000,0102,37120,1,StreetAddress,E,100
AL,AL0216,2,504-005,COURTLAND PUBLIC LIBRARY,215 COLLEGE STREET,COURTLAND,35618,3100,LAWRENCE,2566379988,CE,NC,864,R_15,0,R_15,816,R_15,52,R_15,2016,0,0,0,-87.310429,34.665965,1,079,18040,33115,42,9792,4036,0104,19460,0,StreetAddress,E,100
AL,AL0217,2,999-083,EVA PUBLIC LIBRARY,4549 HIGHWAY 55 EAST,EVA,35621,7905,MORGAN,2567968638,CE,NO,3834,R_15,0,R_15,1040,R_15,52,R_15,2016,0,0,0,-86.757649,34.331808,1,103,24688,119565,42,56,4026,0105,19460,0,StreetAddress,E,100
AL,AL0218,2,500-009,CROSSVILLE PUBLIC LIBRARY,8075 AL HWY 227,CROSSVILLE,35962,,DEKALB,2565282628,CE,NO,4800,R_15,0,R_15,2119,R_15,52,R_15,2016,0,0,0,-85.991877,34.287038,1,049,18856,71130,42,9607,3020,0104,0,,StreetAddress,E,92.421875
AL,AL0219,2,999-073,WALNUT GROVE - WESTSIDE PUBLIC LIBRARY,5151 WALNUT GROVE ROAD,ALTOONA,35990,,ETOWAH,2055896699,CE,NC,2500,R_15,0,R_15,1300,R_15,50,R_15,2016,0,0,0,-86.30757,34.054032,1,055,79728,103057,42,111,3069,0104,23460,0,StreetAddress,E,92.078125
AL,AL0222,2,107-007,ORANGE BEACH PUBLIC LIBRARY,26267 CANAL ROAD,ORANGE BEACH,36561,3917,BALDWIN,2519812923,CE,NC,10500,R_15,0,R_15,2646,R_15,52,R_15,2016,0,0,0,-87.576941,30.292128,1,003,57144,203709,21,114.05,1083,0101,19300,0,PointAddress,E,100
AL,AL0223,2,512-007,SATSUMA PUBLIC LIBRARY,5466 OLD HIGHWAY 43,SATSUMA,36572,,MOBILE,2516790700,CE,NC,5800,R_15,0,R_15,2112,R_15,52,R_15,2016,0,0,0,-88.058291,30.848299,1,097,68352,415395,21,56,2023,0101,33660,0,StreetAddress,E,100
AL,AL0225,2,999-074,FALKVILLE PUBLIC LIBRARY,7 NORTH 1ST AVENUE,FALKVILLE,35622,5050,MORGAN,2567845822,CE,NO,1500,R_15,0,R_15,1872,R_15,52,R_15,2016,0,0,0,-86.907477,34.368605,1,103,25648,119565,41,55,4069,0105,19460,0,StreetAddress,E,100
AL,AL0226,2,999-080,SPRINGVILLE PUBLIC LIBRARY,6313 U.S. HIGHWAY 11,SPRINGVILLE,35146,,ST. CLAIR,2054672339,CE,NC,3360,R_15,0,R_15,1872,R_15,52,R_15,2016,0,0,7,-86.473243,33.774059,1,115,72600,87074,31,405.01,1175,0103,13820,0,StreetAddress,E,96.65625
AL,AL0227,2,AL0231-002,BRIDGEPORT - LENA CAGLE PUBLIC LIBRARY,401 ALABAMA AVENUE,BRIDGEPORT,35740,6227,JACKSON,2564952259,CE,NO,2600,R_15,0,R_15,1400,R_15,52,R_15,2016,0,0,0,-85.717736,34.947238,1,071,09328,52419,32,9502,1083,0105,42460,1,StreetAddress,E,100
AL,AL0229,2,NEW,WEST BLOCTON PUBLIC LIBRARY,62 WALTER OWENS DRIVE,WEST BLOCTON,35184,,BIBB,2059383570,CE,NO,2820,R_15,0,R_15,1347,R_15,50,R_15,2016,0,0,0,-87.111548,33.11836,1,007,80928,22583,42,100.02,1067,0106,13820,0,StreetName,E,100
AL,AL0231,2,SOMERVILLE,CARBON HILL CITY LIBRARY,215 NW 2ND STREET,CARBON HILL,35549,4611,WALKER,2059244254,CE,NO,960,R_15,0,R_15,832,R_15,52,R_15,2016,0,0,0,-87.5289,33.88968,1,127,12016,65294,43,211,3062,0104,13820,0,StreetAddress,E,84.859375
AL,AL0238,1,AL0240-001,OHATCHEE PUBLIC LIBRARY,7803 ALABAMA HIGHWAY 77,OHATCHEE,36271,,CALHOUN,2568924203,CE,NO,2250,R_15,0,R_15,1508,R_15,52,R_15,2016,0,0,0,-86.038188,33.780065,1,015,56472,115620,41,26,2173,0103,11500,0,StreetAddress,E,100
AL,AL0239,1,AL0241-001,SOMERVILLE PUBLIC LIBRARY,192 BROAD STREET,SOMERVILLE,35670,,MORGAN,2567789779,CE,NO,2000,R_15,0,R_15,1750,R_15,50,R_15,2016,0,0,0,-86.798892,34.473429,1,103,71496,119565,42,54.05,1038,0105,19460,0,PointAddress,E,100
AL,AL0240,1,AL0242-001,CHELSEA PUBLIC LIBRARY,41 WELDON DRIVE,CHELSEA,35043,9631,SHELBY,2056189735,CE,NO,1836,R_15,0,R_15,2444,R_15,52,R_15,2016,0,0,0,-86.631759,33.340248,1,117,14104,208713,21,302.14,2026,0106,13820,0,StreetAddress,E,100
AL,AL0241,1,AL0243-001,DUTTON PUBLIC LIBRARY,23 MAIN STREET,DUTTON,35744,6318,JACKSON,2562284090,CE,NO,1600,R_15,0,R_15,1248,R_15,52,R_15,2016,0,0,0,-85.916723,34.610205,1,071,21952,52419,42,9511,1101,0105,42460,1,StreetAddress,E,100
AL,AL0242,1,501-020,FORT DEPOSIT PUBLIC LIBRARY,11 MILNER STREET,FORT DEPOSIT,36032,,LOWNDES,3344044400,CE,NO,6424,R_15,0,R_15,1560,R_15,52,R_15,2016,0,0,7,-86.57911,31.987217,1,085,27520,10458,42,7812,4012,0107,33860,0,StreetAddress,E,100
AL,AL0243,1,104-010,SUMMERDALE - MARJORIE YOUNCE SNOOK PUBLIC LIBRARY,202 WEST BROADWAY STREET,SUMMERDALE,36580,4702,BALDWIN,2519892011,CE,NO,3200,R_15,0,R_15,2424,R_15,52,R_15,2016,0,0,0,-87.701512,30.487229,1,003,73872,203709,42,110,1052,0101,19300,0,StreetAddress,E,100
AL,AL0244,1,514-005,CLAY PUBLIC LIBRARY,7257 OLD SPRINGVILLE ROAD,PINSON,35126,2455,JEFFERSON,2056803812,CE,CC,2800,R_15,0,R_15,2184,R_15,52,R_15,2016,0,0,0,-86.576972,33.715779,1,073,15256,660367,41,111.11,3016,0106,13820,0,PointAddress,E,100
AL,AL0245,1,999-084,ECLECITC PUBLIC LIBRARY,50 MAIN STREET,ECLECTIC,36024,5614,ELMORE,3346394727,CE,NO,1617,R_15,0,R_15,800,R_15,52,R_15,2016,0,0,0,-86.03464,32.635971,1,051,22816,81468,42,305,2018,0102,33860,0,StreetAddress,E,100
AL,AL0246,1,506-003,HOBSON CITY PUBLIC LIBRARY,610 MARTIN LUTHER KING DRIVE,HOBSON CITY,36201,7344,CALHOUN,2568317069,CE,NO,1000,R_15,0,R_15,975,R_15,52,R_15,2016,0,0,0,-85.843395,33.620441,1,015,35152,115620,23,12.01,2025,0103,11500,0,StreetAddress,E,100
AL,AL0247,1,512-008,MUNFORD PUBLIC LIBRARY,82 RAILROAD STREET,MUNFORD,36268,,TALLADEGA,2563583600,CE,NO,2000,R_15,0,R_15,2000,R_15,52,R_15,2016,0,0,0,-85.95425,33.530838,1,121,52848,80862,41,101.02,2045,0103,45180,1,StreetAddress,E,100
AL,AL0248,1,AL8004-001,SOUTHSIDE PUBLIC LIBRARY,2138 HIGHWAY 77,SOUTHSIDE,35907,,ETOWAH,2564426217,CE,NO,1600,R_15,0,R_15,1521,R_15,52,R_15,2016,0,0,0,-86.022373,33.922252,1,055,71832,103057,23,105.01,3038,0104,23460,0,StreetAddress,E,100
AL,AL0249,1,AL8007-005,STEELE PUBLIC LIBRARY,78 HILLVIEW STREET,STEELE,35987,2012,ST. CLAIR,2055380811,CE,CC,1400,R_15,0,R_15,1560,R_15,52,R_15,2016,0,0,0,-86.199029,33.944185,1,115,72888,87074,41,404.02,3009,0103,13820,0,PointAddress,E,100
AL,AL0250,1,AL0250-001,PINSON PUBLIC LIBRARY,4410 MAIN STREET,PINSON,35126,3220,JEFFERSON,2056809298,CE,CC,3000,R_15,0,R_15,2631,R_15,52,R_15,2016,0,0,0,-86.681401,33.691507,1,073,60648,660367,21,112.05,1050,0106,13820,0,PointAddress,E,100
